[{"name":"Bankers Draft","address":"115-117 High Street, Bedford, Bedfordshire","location":{"lat":52.1383813,"lng":-0.4666835}},
{"name":"Pilgrims Progress","address":"42 Midland Road, Bedford, Bedfordshire","location":{"lat":52.1360634,"lng":-0.4717376}},
{"name":"Gary Cooper","address":"Unit 2, Grove Park Theatre Complex, Court Drive, Dunstable, Bedfordshire GBG 2013","location":null},
{"name":"Swan Hotel (WL)","address":"50 High Street, Leighton Buzzard, Bedfordshire GBG 2013","location":{"lat":51.9158432,"lng":-0.6632662}},
{"name":"London Hatter","address":"46 Park Street, Luton, Bedfordshire GBG 2013","location":{"lat":51.877347,"lng":-0.4119047}},
{"name":"White House","address":"1 Bridge Street, Luton, Bedfordshire","location":{"lat":51.6996202,"lng":-0.2783731}},
{"name":"Old Manor","address":"Grenville Place, Bracknell, Berkshire GBG 2013","location":null},
{"name":"Baron Cadogan","address":"22-24 Prospect Street, Caversham, Berkshire GBG 2013","location":{"lat":51.4680649,"lng":-0.9725549}},
{"name":"Bear","address":"8-10 High Street, Maidenhead, Berkshire","location":{"lat":51.5230784,"lng":-0.7178835}},
{"name":"Greyhound","address":"86-92 Queen Street, Maidenhead, Berkshire GBG 2013","location":{"lat":51.5202919,"lng":-0.7209951}},
{"name":"Diamond Tap","address":"42 Cheap Street, Newbury, Berkshire","location":{"lat":51.3997732,"lng":-1.322679}},
{"name":"Hatchet (WL)","address":"12 Market Place, Newbury, Berkshire","location":{"lat":51.4008845,"lng":-1.3217817}},
{"name":"Back of Beyond","address":"104-108 Kings Road, Reading, Berkshire GBG 2013","location":{"lat":51.454822,"lng":-0.9634016}},
{"name":"Hope Tap","address":"99-105 Friar Street, Reading, Berkshire","location":{"lat":51.4565886,"lng":-0.9752126}},
{"name":"Monks Retreat","address":"163 Friar Street, Reading, Berkshire","location":{"lat":51.4566224,"lng":-0.9705223}},
{"name":"Moon & Spoon","address":"86-88 High Street, Slough, Berkshire GBG 2013","location":{"lat":51.5052494,"lng":-0.608899}},
{"name":"King & Castle","address":"15-16 Thames Street, Windsor, Berkshire","location":{"lat":51.4836641,"lng":-0.6087277}},
{"name":"Windlesora","address":"17 William Street, Windsor, Berkshire","location":{"lat":51.4805092,"lng":-0.6104196}},
{"name":"Gig House","address":"2 The Plaza, Denmark Street, Wokingham, Berkshire","location":{"lat":51.409652,"lng":-0.834447}},
{"name":"Robert Fitzharding","address":"24 Cannon Street, Bedminster, Bristol","location":{"lat":51.4413009,"lng":-2.6010421}},
{"name":"Berkeley","address":"15-19 Queens Road, Bristol, Bristol","location":{"lat":51.455711,"lng":-2.6052324}},
{"name":"Commercial Rooms","address":"43-45 Corn Street, Bristol, Bristol GBG 2013","location":{"lat":51.4545246,"lng":-2.5942203}},
{"name":"Knights Templar","address":"1 The Square, Temple Quay, Bristol, Bristol","location":{"lat":51.4303573,"lng":-2.5706192}},
{"name":"V-Shed","address":"Waterfront, Canons Road, Bristol, Bristol","location":{"lat":51.4512286,"lng":-2.598558}},
{"name":"W G Grace","address":"71-73 Whiteladies Road, Cotham, Bristol","location":{"lat":51.4632637,"lng":-2.6087584}},
{"name":"Van Dyck Forum","address":"748-756 Fishponds Road, Fishponds, Bristol","location":{"lat":51.4796493,"lng":-2.5302785}},
{"name":"Jolly Sailor","address":"High Street, Hanham, Bristol","location":{"lat":51.4482322,"lng":-2.5137036}},
{"name":"Kingswood Colliers","address":"94-96 Regent Street, Kingswood, Bristol","location":{"lat":51.4623136,"lng":-2.5070156}},
{"name":"St Georges Hall","address":"203 Church Road, Redfield, Bristol","location":{"lat":51.459293,"lng":-2.5546809}},
{"name":"Staple Hill Oak","address":"84-86 High Street, Staple Hill, Bristol","location":{"lat":51.4811152,"lng":-2.5101232}},
{"name":"Bell Hotel","address":"40 Market Square, Aylesbury, Buckinghamshire","location":{"lat":51.8155299,"lng":-0.8123698}},
{"name":"White Hart","address":"Unit 4, Exchange Street, Aylesbury, Buckinghamshire","location":{"lat":51.8153841,"lng":-0.8093536}},
{"name":"Falcon","address":"9 Cornmarket, High Wycombe, Buckinghamshire","location":{"lat":51.629565,"lng":-0.7511895}},
{"name":"William Robert Loosley","address":"120-123 Oxford Road, High Wycombe, Buckinghamshire","location":{"lat":51.6313721,"lng":-0.7547553}},
{"name":"Lloyds No. 1","address":"7 Savoy Crescent, Milton Keynes, Buckinghamshire","location":null},
{"name":"Moon under Water","address":"Xscape, 10 Avebury Boulevard, Milton Keynes, Buckinghamshire","location":null},
{"name":"Secklow Hundred","address":"316 Midsummer Boulevard, Milton Keynes, Buckinghamshire","location":{"lat":52.039646,"lng":-0.7614883}},
{"name":"Wetherspoons","address":"201 Midsummer Boulevard, Milton Keynes, Buckinghamshire GBG 2013","location":{"lat":52.0380099,"lng":-0.7673377}},
{"name":"Regal","address":"38-39 St Andrews Street, Cambridge, Cambridgeshire","location":{"lat":52.2034565,"lng":0.1234415}},
{"name":"Tivoli","address":"16 Chesterton Road, Cambridge, Cambridgeshire","location":{"lat":52.2138512,"lng":0.1238812}},
{"name":"Hippodrome","address":"Dartford Road, March, Cambridgeshire","location":{"lat":52.5519858,"lng":0.0841966}},
{"name":"College Arms","address":"40 The Broadway, Peterborough, Cambridgeshire","location":{"lat":52.5754171,"lng":-0.241632}},
{"name":"Drapers Arms","address":"29-31 Cowgate, Peterborough, Cambridgeshire GBG 2013","location":{"lat":52.5729716,"lng":-0.2463938}},
{"name":"Weeping Ash","address":"15 New Street, St Neots, Cambridgeshire","location":{"lat":52.2283634,"lng":-0.2674372}},
{"name":"George Hotel","address":"10 Market Place, Whittlesey, Cambridgeshire GBG 2013","location":{"lat":52.5565169,"lng":-0.1288227}},
{"name":"Wheatsheaf Inn","address":"18-22 Church Terrace, Wisbech, Cambridgeshire","location":{"lat":52.6650886,"lng":0.1624418}},
{"name":"Forest House","address":"Love Street, Chester, Cheshire","location":{"lat":53.1908784,"lng":-2.8847797}},
{"name":"Square Bottle","address":"78-92 Foregate Street, Chester, Cheshire","location":{"lat":53.1914795,"lng":-2.8843354}},
{"name":"Counting House","address":"18 Swan Bank, Congleton, Cheshire GBG 2013","location":{"lat":53.1638546,"lng":-2.2146414}},
{"name":"Gaffers Row","address":"48 Victoria Street, Crewe, Cheshire","location":{"lat":53.0987813,"lng":-2.444167}},
{"name":"Thomas Telford","address":"65-69 Whitby Road, Ellesmere Port, Cheshire","location":{"lat":53.2797133,"lng":-2.8993553}},
{"name":"Wheatsheaf","address":"43 Overpool Road, Overpool, Ellesmere Port, Cheshire","location":{"lat":53.2828537,"lng":-2.9231873}},
{"name":"Society Rooms","address":"Park Green, Macclesfield, Cheshire","location":{"lat":53.2565547,"lng":-2.1235739}},
{"name":"Penny Black","address":"110 Witton Street, Northwich, Cheshire GBG 2013","location":{"lat":53.2622196,"lng":-2.5085169}},
{"name":"Kingfisher","address":"London Road South, Poynton, Cheshire","location":{"lat":53.3468814,"lng":-2.1230855}},
{"name":"Ferry Boat","address":"10 Church Street, Runcorn, Cheshire","location":{"lat":53.3419546,"lng":-2.7314913}},
{"name":"Friar Penketh","address":"4 Barbauld Street, Warrington, Cheshire","location":null},
{"name":"Looking Glass","address":"41-43 Buttermarket Street, Warrington, Cheshire","location":{"lat":53.3898305,"lng":-2.588226}},
{"name":"Premier","address":"93-99 Albert Road, Halton, Widnes, Cheshire GBG 2013","location":{"lat":53.3705039,"lng":-2.724245}},
{"name":"Bollin Fee","address":"6-12 Swan Street, Wilmslow, Cheshire GBG 2013","location":{"lat":53.3273881,"lng":-2.2293254}},
{"name":"Queens Arms","address":"Dene Drive, Winsford, Cheshire GBG 2013","location":{"lat":53.1881217,"lng":-2.5297459}},
{"name":"King Johns Tavern","address":"1 South Road, Hartlepool, Cleveland","location":{"lat":54.6847448,"lng":-1.2174662}},
{"name":"Ward Jackson","address":"3-9 Church Square, Hartlepool, Cleveland","location":{"lat":54.685051,"lng":-1.209708}},
{"name":"Isaac Wilson","address":"61 Wilson Street, Middlesbrough, Cleveland","location":{"lat":54.5781717,"lng":-1.236929}},
{"name":"Resolution","address":"19 Newport Crescent, Middlesbrough, Cleveland","location":{"lat":54.575952,"lng":-1.2379675}},
{"name":"Swatters Carr","address":"228-230 Linthorpe Road, Middlesburgh, Cleveland","location":{"lat":54.5698987,"lng":-1.2386911}},
{"name":"Plimsoll Line","address":"138-142 High Street East, Redcar, Cleveland","location":{"lat":54.5593534,"lng":-1.1438861}},
{"name":"Thomas Sheraton","address":"4 Bridge Road, Stockton-on-Tees, Cleveland GBG 2013","location":{"lat":54.5614136,"lng":-1.3129132}},
{"name":"Chapel an Gansblydhen","address":"(between 80-82) Fore Street, Bodmin, Cornwall GBG 2013","location":null},
{"name":"John Francis Bassett","address":"19 Commercial Street, Camborne, Cornwall","location":{"lat":50.2134745,"lng":-5.3009464}},
{"name":"Packet Station","address":"4 The Moor, Berkeley Vale, Killigrew Street, Falmouth, Cornwall","location":{"lat":50.1530526,"lng":-5.0746223}},
{"name":"Cribbar","address":"11-19 Gover Lane, Newquay, Cornwall","location":{"lat":50.4136931,"lng":-5.0861352}},
{"name":"Towan Blystra","address":"12-16 Cliff Road, Newquay, Cornwall","location":{"lat":50.4143384,"lng":-5.0774693}},
{"name":"Tremenheere","address":"4-8 Market Place, Penzance, Cornwall","location":{"lat":50.2125515,"lng":-5.4804167}},
{"name":"Green Parrot","address":"St Georges Hill, Perranporth, Cornwall","location":{"lat":50.3411235,"lng":-5.1609191}},
{"name":"Rann Wartha","address":"9 Biddicks Court, Fore Street, St Austell, Cornwall GBG 2013","location":null},
{"name":"Hain Line","address":"Tregenna Place, Street an Pol, St Ives, Cornwall","location":{"lat":50.2114128,"lng":-5.4807008}},
{"name":"Try Dower","address":"Unit 1, Lemon Quay, Truro, Cornwall","location":{"lat":50.2624866,"lng":-5.0512551}},
{"name":"Furness Railway","address":"76-80 Abbey Road, Barrow in Furness, Cumbria","location":{"lat":54.1190242,"lng":-3.2226104}},
{"name":"William Rufus","address":"10-16 Botchergate, Carlisle, Cumbria","location":{"lat":54.8913341,"lng":-2.9319414}},
{"name":"Woodrow Wilson","address":"48 Botchergate, Carlisle, Cumbria GBG 2013","location":{"lat":54.8907374,"lng":-2.930554}},
{"name":"Miles Thompson","address":"Council Offices, Allhallows Lane, Kendal, Cumbria","location":{"lat":54.3267911,"lng":-2.7484962}},
{"name":"Bransty Arch","address":"9 Bransty Row, Whitehaven, Cumbria","location":{"lat":54.551293,"lng":-3.5871899}},
{"name":"Henry Bessemer","address":"New Oxford Street, Workington, Cumbria","location":{"lat":54.6434105,"lng":-3.5493607}},
{"name":"Waggon & Horses","address":"9 King Street, Alfreton, Derbyshire","location":{"lat":53.0971686,"lng":-1.3905644}},
{"name":"Wye Bridge House","address":"Fairfield Road, Buxton, Derbyshire GBG 2013","location":{"lat":53.2623993,"lng":-1.9034057}},
{"name":"Portland Hotel (WL)","address":"West Bars, Chesterfield, Derbyshire","location":{"lat":53.2354736,"lng":-1.4338401}},
{"name":"Spa Lane Vaults","address":"34 St Marys Gate, Chesterfield, Derbyshire GBG 2013","location":null},
{"name":"Babington Arms","address":"11-13 Babington Lane, Derby, Derbyshire GBG 2013","location":{"lat":52.9191663,"lng":-1.4762699}},
{"name":"Standing Order","address":"28-32 Iron Gate, Derby, Derbyshire","location":{"lat":52.9241633,"lng":-1.4781647}},
{"name":"Thomas Leaper","address":"27 Iron Gate, Derby, Derbyshire","location":{"lat":52.9243593,"lng":-1.47773}},
{"name":"Red Lion","address":"2 Derby Road, Heanor, Derbyshire GBG 2013","location":{"lat":53.0119153,"lng":-1.3637612}},
{"name":"Observatory","address":"14a Market Place, Ilkeston, Derbyshire","location":{"lat":52.9713842,"lng":-1.3088989}},
{"name":"Twitchel Inn","address":"Clifford Street, Long Eaton, Derbyshire GBG 2013","location":{"lat":52.8962419,"lng":-1.2680601}},
{"name":"Crown","address":"Derwent House, Crown Square, Bakewell Road, Matlock, Derbyshire","location":{"lat":53.1441368,"lng":-1.5709471}},
{"name":"Red Lion","address":"Market Place, Ripley, Derbyshire GBG 2013","location":{"lat":53.0421213,"lng":-1.3749446}},
{"name":"Sir Nigel Gresley","address":"Market Street, Swadlincote, Derbyshire","location":{"lat":52.7639775,"lng":-1.5589312}},
{"name":"Panniers","address":"33-34 Boutport Street, Barnstaple, Devon GBG 2013","location":{"lat":51.0807687,"lng":-4.0581595}},
{"name":"Water Gate","address":"7 The Strand, Barnstaple, Devon","location":{"lat":51.0787879,"lng":-4.0603645}},
{"name":"Vigilance","address":"5 Bolton Street, Brixham, Devon","location":{"lat":50.3930349,"lng":-3.5156822}},
{"name":"General Sir Redvers Buller","address":"37 High Street, Crediton, Devon","location":{"lat":50.7906907,"lng":-3.6610636}},
{"name":"Chevalier Inn","address":"81-82 Fore Street, Exeter, Devon","location":{"lat":50.6842201,"lng":-3.4664131}},
{"name":"Georges Meeting House","address":"38 South Street, Exeter, Devon","location":{"lat":50.7205745,"lng":-3.5300518}},
{"name":"Imperial","address":"New North Road, Exeter, Devon GBG 2013","location":{"lat":50.730082,"lng":-3.5390572}},
{"name":"Sawyers Arms","address":"121 Cowick Street, St Thomas, Exeter, Devon","location":{"lat":50.7153733,"lng":-3.5440729}},
{"name":"Powder Monkey","address":"2-2a The Parade, Exmouth, Devon GBG 2013","location":{"lat":50.6205365,"lng":-3.4136798}},
{"name":"Richard Hopkins","address":"34-42 Queen Street, Newton Abbot, Devon GBG 2013","location":{"lat":50.5305771,"lng":-3.608019}},
{"name":"Isaac Merritt","address":"54-58 Torquay Road, Paignton, Devon GBG 2013","location":{"lat":50.4373004,"lng":-3.567383}},
{"name":"Talk of the Town","address":"46-52 Torbay Road, Paignton, Devon","location":{"lat":50.4351634,"lng":-3.5615398}},
{"name":"Britannia Inn","address":"1 Wolseley Road, Milehouse, Plymouth, Devon GBG 2013","location":null},
{"name":"Gog & Magog","address":"57-59 Southside Street, Plymouth, Devon","location":{"lat":50.3678402,"lng":-4.137717}},
{"name":"Mannamead","address":"61-63 Mutley Plain, Mutley, Plymouth, Devon","location":{"lat":50.3824467,"lng":-4.1336539}},
{"name":"Union Rooms","address":"19 Union Street, Plymouth, Devon","location":{"lat":50.3698112,"lng":-4.1511735}},
{"name":"White Ball Inn","address":"8 Bridge Street, Tiverton, Devon","location":{"lat":50.9029388,"lng":-3.4908451}},
{"name":"Green Ginger","address":"Unit 10, Lower Ground Floor, Winter Garden, Fleet Walk Shopping Centre, Fleet Street, Torquay, Devon","location":{"lat":50.4632103,"lng":-3.5261956}},
{"name":"London Inn","address":"15-16 The Strand, Torquay, Devon","location":{"lat":50.4611736,"lng":-3.5235397}},
{"name":"Sir Percy Florence Shelley","address":"673-675 Christchurch Road, Boscombe, Dorset","location":{"lat":50.7273855,"lng":-1.836065}},
{"name":"Christopher Creeke","address":"2 Holdenhurst Road, Bournemouth, Dorset","location":{"lat":50.7223697,"lng":-1.8657348}},
{"name":"Mary Shelley","address":"The Quadrant Centre, St Peter's Road, Bournemouth, Dorset","location":{"lat":50.7918646,"lng":-1.8803784}},
{"name":"Moon in the Square","address":"4-8 Exeter Road, Bournemouth, Dorset","location":{"lat":50.7180958,"lng":-1.8796234}},
{"name":"Greyhound","address":"2 East Street, Bridport, Dorset","location":{"lat":50.7332784,"lng":-2.7566068}},
{"name":"Blackwater Stream","address":"180 Lower Blandford Road, Broadstone, Poole, Dorset","location":{"lat":50.7601368,"lng":-1.9945277}},
{"name":"Royal Oak","address":"21-22 High West Street, Dorchester, Dorset","location":{"lat":50.7154527,"lng":-2.4359131}},
{"name":"Nightjar","address":"94 Victoria Road, Ferndown, Dorset","location":{"lat":50.8033336,"lng":-1.8907822}},
{"name":"Lord Wimborne","address":"59 Lagland Street, Poole, Dorset","location":{"lat":50.7157578,"lng":-1.9821014}},
{"name":"Quay","address":"21 The Quay, Poole, Dorset","location":{"lat":50.7123586,"lng":-1.9872432}},
{"name":"Swan","address":"41-43 St Thomas Street, Weymouth, Dorset","location":{"lat":50.6084313,"lng":-2.4548481}},
{"name":"William Henry","address":"1 Frederick Place, Weymouth, Dorset GBG 2013","location":{"lat":50.6113012,"lng":-2.4545366}},
{"name":" Wimborne Minster Man in the Wall","address":"10 West Borough, Wimborne Minster, Dorset","location":{"lat":50.8008472,"lng":-1.9883531}},
{"name":"Parkstone and Heatherlands","address":"433-457 Wimborne Road, Winton, Bournemouth, Dorset","location":{"lat":50.743371,"lng":-1.8785648}},
{"name":"Stanley Jefferson","address":"5 Market Place, Bishop Auckland, Durham GBG 2013","location":{"lat":54.6649408,"lng":-1.6726746}},
{"name":"Wicket Gate","address":"193 Front Street, Chester-le-Street, Durham GBG 2013","location":{"lat":54.852636,"lng":-1.5734876}},
{"name":"Company Row","address":"Front Street, Consett, Durham","location":{"lat":54.8700222,"lng":-1.8589311}},
{"name":"Tanners Hall","address":"63-64 Skinnergate, Darlington, Durham GBG 2013","location":{"lat":54.5256954,"lng":-1.5572311}},
{"name":"William Stead","address":"8 Crown Street, Darlington, Durham","location":{"lat":54.5268789,"lng":-1.5535402}},
{"name":"The Bishops Mill","address":"Millennium Place, Walkergate, Durham, Durham","location":{"lat":54.778675,"lng":-1.575133}},
{"name":"Water House","address":"65 North Road, Durham, Durham GBG 2013","location":{"lat":54.777272,"lng":-1.5810987}},
{"name":"Five Quarter","address":"Units 3b-3c Hailsham Place, Peterlee, Durham","location":{"lat":35.9940329,"lng":-78.898619}},
{"name":"Moon on the Square","address":"1-15 Market Square, Basildon, Essex","location":{"lat":51.5690361,"lng":0.4579717}},
{"name":"Blue Boar","address":"39 High Street, Billericay, Essex GBG 2013","location":{"lat":51.6268453,"lng":0.4185613}},
{"name":"Picture Palace","address":"Fairfield Road, Braintree, Essex","location":{"lat":51.877324,"lng":0.5533922}},
{"name":"Ivory Peg","address":"4-7 New London Road, Chelmsford, Essex","location":{"lat":51.7327477,"lng":0.4732719}},
{"name":"Thomas Mildmay","address":"77 Frenchs Walk, Springfield Road, Chelmsford, Essex","location":{"lat":51.7399863,"lng":0.4896655}},
{"name":"Moon & Starfish","address":"1 Marine Parade East, Clacton, Essex","location":{"lat":51.7876509,"lng":1.1542343}},
{"name":"Playhouse","address":"4 St John's Street, Colchester, Essex","location":{"lat":51.8876258,"lng":0.8969163}},
{"name":"William Aylmer","address":"Aylmer House, Kitson Way, Harlow, Essex","location":{"lat":51.7711751,"lng":0.0917022}},
{"name":"Elms","address":"1060 London Road, Leigh on Sea, Essex GBG 2013","location":{"lat":51.547669,"lng":0.6564886}},
{"name":"Last Post","address":"227 High Road, Loughton, Essex","location":{"lat":51.6473351,"lng":0.055363}},
{"name":"Roebuck","address":"138 High Street, Rayleigh, Essex GBG 2013","location":{"lat":51.584908,"lng":0.6035153}},
{"name":"Temeraire","address":"55 High Street, Saffron Walden, Essex GBG 2013","location":{"lat":52.0221292,"lng":0.2391825}},
{"name":"Last Post","address":"Weston Road, Southend on Sea, Essex GBG 2013","location":{"lat":51.5364731,"lng":0.7132478}},
{"name":"Battesford Court","address":"100-102 Newland Street, Witham, Essex","location":{"lat":51.7989548,"lng":0.6389987}},
{"name":"Bank House","address":"15-21 Clarence Street, Cheltenham, Gloucestershire","location":{"lat":51.9011628,"lng":-2.0756034}},
{"name":"Moon under Water","address":"16-28 Bath Road, Cheltenham, Gloucestershire","location":{"lat":51.8979144,"lng":-2.0720008}},
{"name":"Regal","address":"33 St Aldate Street, Gloucester, Gloucestershire","location":{"lat":51.8657999,"lng":-2.2427577}},
{"name":"Water Poet","address":"61-63 Eastgate Street, Gloucester, Gloucestershire","location":{"lat":51.8638063,"lng":-2.2429129}},
{"name":"Lord John","address":"15-17 Russell Street, Stroud, Gloucestershire","location":{"lat":51.7446407,"lng":-2.2179778}},
{"name":"Royal Hop Pole (WL)","address":"94 Church Street, Tewkesbury, Gloucestershire GBG 2013","location":{"lat":51.9920206,"lng":-2.1584026}},
{"name":"Thorns Farm","address":"11-17 South Parade, Kennedy Way, Yate, Gloucestershire","location":{"lat":51.5386936,"lng":-2.4119147}},
{"name":"John Russell Fox","address":"10 High Street, Andover, Hampshire","location":{"lat":51.2070911,"lng":-1.478136}},
{"name":"Lloyds No. 1","address":"Unit R6, Festival Square, Festival Place Shopping Centre, Basingstoke, Hampshire","location":null},
{"name":"Maidenhead Inn","address":"17 Winchester Street, Basingstoke, Hampshire GBG 2013","location":{"lat":51.2423585,"lng":-1.2627482}},
{"name":"First Post","address":"42 High Street, Cosham, Hampshire","location":{"lat":50.8448633,"lng":-1.0671243}},
{"name":"Sir Alec Rose","address":"32-33 The Boardwalk, Port Solent, Cosham, Hampshire","location":{"lat":50.8408975,"lng":-1.0970894}},
{"name":"Wagon Works","address":"28 Southampton Road, Eastleigh, Hampshire","location":{"lat":50.9694065,"lng":-1.3506261}},
{"name":"Crown Inn","address":"40 West Street, Fareham, Hampshire","location":{"lat":50.8462949,"lng":-1.125835}},
{"name":"Lord Arthur Lee","address":"100-108 West Street, Fareham, Hampshire","location":{"lat":50.8523729,"lng":-1.1813514}},
{"name":"Tilly Shilling","address":"2-5 Queensmead, Victoria Road, Farnborough, Hampshire","location":{"lat":51.2933972,"lng":-0.7589329}},
{"name":"Prince Arthur","address":"238 Fleet Road, Fleet, Hampshire","location":{"lat":51.2809646,"lng":-0.8423747}},
{"name":"Star","address":"28-29 High Street, Gosport, Hampshire","location":{"lat":50.796174,"lng":-1.1220618}},
{"name":"Parchment Makers","address":"1 Park Road North, Havant, Hampshire","location":{"lat":50.8532931,"lng":-0.9848041}},
{"name":"Red Lion","address":"3 College Street, Petersfield, Hampshire","location":{"lat":51.0051124,"lng":-0.933874}},
{"name":"Isambard Kingdom Brunel","address":"2 Guildhall Walk, Portsmouth, Hampshire","location":{"lat":50.7966669,"lng":-1.0930606}},
{"name":"John Jacques","address":"78-82 Fratton Road, Fratton, Portsmouth, Hampshire","location":{"lat":50.7983568,"lng":-1.0767274}},
{"name":"Sir John Baker","address":"80 London Road, North End, Portsmouth, Hampshire GBG 2013","location":{"lat":50.814645,"lng":-1.0794832}},
{"name":"Trafalgar","address":"Trafalgar House, 16 Edinburgh Road, Portsmouth, Hampshire","location":{"lat":50.8002323,"lng":-1.0920358}},
{"name":"Admiral Sir Lucius Curtis","address":"Canute Road, Southampton, Hampshire","location":{"lat":50.8970272,"lng":-1.3945759}},
{"name":"Bright Water Inn","address":"370-372 Shirley Road, Shirley, Southampton, Hampshire","location":{"lat":50.9188976,"lng":-1.4291252}},
{"name":"Giddy Bridge","address":"10-16 London Road, Southampton, Hampshire","location":{"lat":50.9109871,"lng":-1.4044125}},
{"name":"Standing Order","address":"30 High Street, Southampton, Hampshire","location":{"lat":50.9143521,"lng":-1.2712293}},
{"name":"Lord Palmerston","address":"84-90 Palmerston Road, Southsea, Hampshire","location":{"lat":50.7841946,"lng":-1.088957}},
{"name":"Denmead Queen","address":"8-9 Queens Parade, 121-123 London Road, Waterlooville, Hampshire","location":{"lat":50.8969321,"lng":-1.0170731}},
{"name":"Old Gaol House","address":"11 Jewry Street, Winchester, Hampshire","location":{"lat":51.0636475,"lng":-1.3163072}},
{"name":"Kings Fee","address":"49-53 Commercial Road, Hereford, Herefordshire","location":{"lat":52.0583176,"lng":-2.7105899}},
{"name":"Dukes Head","address":"Corn Square, Leominster, Herefordshire","location":{"lat":52.2269571,"lng":-2.737794}},
{"name":"Mail Rooms","address":"Gloucester Road, Ross-on-Wye, Herefordshire GBG 2013","location":{"lat":51.9136805,"lng":-2.5770198}},
{"name":"Crown","address":"145 High Street, Berkhamsted, Hertfordshire","location":{"lat":51.7597947,"lng":-0.5631613}},
{"name":"Hart & Spool","address":"148 Shenley Road, Borehamwood, Hertfordshire","location":{"lat":51.6567801,"lng":-0.2738049}},
{"name":"King James","address":"2-3 Lynton Parade, Turners Hill, Cheshunt, Hertfordshire","location":{"lat":51.7008523,"lng":-0.0341113}},
{"name":"Full House","address":"128 Marlowes, Hemel Hempstead, Hertfordshire","location":{"lat":51.7534829,"lng":-0.4725638}},
{"name":"Six Templars","address":"1 The Wash, Hertford, Hertfordshire","location":{"lat":51.796005,"lng":-0.0791179}},
{"name":"Three Magnets","address":"18-20 Leys Avenue, Letchworth, Hertfordshire","location":{"lat":51.9792625,"lng":-0.2269277}},
{"name":"Admiral Byng","address":"186-192 Darkes Lane, Potters Bar, Hertfordshire","location":{"lat":51.6995935,"lng":-0.1901856}},
{"name":"Pennsylvanian","address":"115-117 High Street, Rickmansworth, Hertfordshire","location":{"lat":51.6387194,"lng":-0.4700533}},
{"name":"Waterend Barn","address":"St Peters Street, St Albans, Hertfordshire","location":{"lat":51.7551541,"lng":-0.3359139}},
{"name":"Standard Bearer","address":"Unit 1, The Plaza, Market Square, Stevenage, Hertfordshire","location":{"lat":51.9015566,"lng":-0.1998286}},
{"name":"Standing Order","address":"33 High Street, Stevenage, Hertfordshire GBG 2013","location":{"lat":51.912098,"lng":-0.2080864}},
{"name":"Moon & Cross","address":"104-106 High Street, Waltham Cross, Hertfordshire","location":{"lat":51.6850736,"lng":-0.0328307}},
{"name":"Colombia Press","address":"72-74 The Parade, High Street, Watford, Hertfordshire","location":{"lat":51.6584096,"lng":-0.4010349}},
{"name":"Moon under Water","address":"44 High Street, Watford, Hertfordshire","location":{"lat":51.6565231,"lng":-0.397698}},
{"name":"Spinning Mill","address":"17-21 Broughshane Street, Ballymena, Northern Ireland GBG 2013","location":{"lat":54.8665667,"lng":-6.2735057}},
{"name":"Bridge House","address":"35-43 Bedford Street, Belfast, Northern Ireland GBG 2013","location":{"lat":54.5930535,"lng":-5.9317606}},
{"name":"Central Bar","address":"13-15 High Street, Carrickfergus, Northern Ireland GBG 2013","location":{"lat":54.7146796,"lng":-5.8063917}},
{"name":"Old Court House","address":"Castlerock Road, Coleraine, Northern Ireland GBG 2013","location":{"lat":55.1360814,"lng":-6.6865387}},
{"name":"Diamond","address":"23-24 The Diamond, Derry, Northern Ireland GBG 2013","location":{"lat":54.9954278,"lng":-7.3221819}},
{"name":"Ice Wharf","address":"22-24 Strand Road, Derry, Northern Ireland","location":{"lat":54.9996744,"lng":-7.321882}},
{"name":"Linen Hall","address":"11-13 Townhall Street, Enniskillen, Northern Ireland GBG 2013","location":{"lat":54.3444038,"lng":-7.6384344}},
{"name":"Tuesday Bell","address":"4 Lisburn Square, Lisburn, Northern Ireland GBG 2013","location":{"lat":54.5097839,"lng":-6.0467212}},
{"name":"Spirit Merchant","address":"54-56 Regent Street, Newtownards, Northern Ireland GBG 2013","location":{"lat":54.5942625,"lng":-5.7009871}},
{"name":"William Coppin","address":"Unit 2, Coppins Bridge Retail & Leisure Centre, Furrlongs, Newport, Isle of Wight","location":{"lat":50.698357,"lng":-1.2831383}},
{"name":"S Fowler & Co","address":"41-43 Union Street, Ryde, Isle of Wight GBG 2013","location":{"lat":50.7302261,"lng":-1.1627001}},
{"name":"County Hotel","address":"10 High Street, Ashford, Kent GBG 2013","location":{"lat":51.1488809,"lng":0.8748713}},
{"name":"Thomas Ingoldsby","address":"5-9 Burgate, Canterbury, Kent","location":{"lat":51.2784389,"lng":1.083332}},
{"name":"West Gate Inn","address":"1-3 North Lane, Canterbury, Kent","location":{"lat":51.2819743,"lng":1.0756511}},
{"name":"Flying Boat","address":"36-42 Spital Street, Dartford, Kent","location":{"lat":51.4447085,"lng":0.214794}},
{"name":"Paper Moon","address":"55 High Street, Dartford, Kent GBG 2013","location":{"lat":51.4437465,"lng":0.2196393}},
{"name":"Eight Bells","address":"19 Cannon Street, Dover, Kent GBG 2013","location":{"lat":51.125839,"lng":1.3126579}},
{"name":"Leading Light","address":"20-22 Preston Street, Faversham, Kent","location":{"lat":51.3137559,"lng":0.8910728}},
{"name":"Samuel Peto","address":"The Baptist Galleries, 23 Rendezvous Street, Folkestone, Kent","location":{"lat":51.080506,"lng":1.1815665}},
{"name":"Robert Pocock","address":"181-183 Windmill Street, Gravesend, Kent","location":{"lat":51.4411351,"lng":0.3690051}},
{"name":"Saxon Shore","address":"78-80 Central Parade, Herne Bay, Kent","location":{"lat":51.3727244,"lng":1.1259994}},
{"name":"Muggleton Inn","address":"8-9 High Street, Maidstone, Kent","location":{"lat":51.2366037,"lng":0.7172105}},
{"name":"Society Rooms","address":"Brenchley House, Week Street, Maidstone, Kent","location":{"lat":51.2777235,"lng":0.5218023}},
{"name":"Mechanical Elephant","address":"28-30 Marine Terrace, Margate, Kent GBG 2013","location":{"lat":51.3865586,"lng":1.3773769}},
{"name":"Golden Lion","address":"147-149 High Street, Rochester, Kent","location":{"lat":51.3505476,"lng":0.458638}},
{"name":"Opera House","address":"88 Mount Pleasant Road, Royal Tunbridge Wells, Kent","location":{"lat":51.1337865,"lng":0.2635326}},
{"name":"Sennockian","address":"139-141 High Street, Sevenoaks, Kent","location":{"lat":51.2726203,"lng":0.1926351}},
{"name":"Summoner","address":"Units 1-3, Bell Shopping Centre, High Street, Sittingbourne, Kent","location":{"lat":51.3493962,"lng":0.7323249}},
{"name":"Humphrey Bean","address":"94 High Street, Tonbridge, Kent GBG 2013","location":{"lat":51.1951102,"lng":0.2744874}},
{"name":"Peter Cushing","address":"16-18 Oxford Street, Whitstable, Kent","location":{"lat":51.3565147,"lng":1.0242035}},
{"name":"Commercial Hotel","address":"1 Church Street, Accrington, Lancashire","location":{"lat":53.7527217,"lng":-2.3639627}},
{"name":"Postal Order","address":"15-19 Darwen Street, Blackburn, Lancashire","location":{"lat":53.7465476,"lng":-2.4825433}},
{"name":"Albert and The Lion","address":"Promenade, Blackpool, Lancashire","location":{"lat":53.8658084,"lng":-3.0489252}},
{"name":"Auctioneer","address":"235-237 Lytham Road, Blackpool, Lancashire","location":{"lat":53.8003421,"lng":-3.0512107}},
{"name":"Layton Rakes","address":"94-98 Market Street, Blackpool, Lancashire","location":{"lat":53.8176402,"lng":-3.0548886}},
{"name":"Boot Inn","address":"18 St James Street, Burnley, Lancashire GBG 2013","location":{"lat":53.7889989,"lng":-2.2404063}},
{"name":"Brun Lea","address":"31-39 Manchester Road, Burnley, Lancashire","location":{"lat":53.7880696,"lng":-2.2438295}},
{"name":"Sir Henry Tate","address":"New Market Street, Chorley, Lancashire","location":{"lat":53.6538047,"lng":-2.6304519}},
{"name":"Jolly Tars","address":"154-158 Victoria Road West, Cleveleys, Lancashire GBG 2013","location":null},
{"name":"Wallace Hartley","address":"35-37 Church Street, Colne, Lancashire GBG 2013","location":{"lat":53.8566641,"lng":-2.170602}},
{"name":"Thomas Drummond","address":"London Street, Fleetwood, Lancashire GBG 2013","location":{"lat":53.9230319,"lng":-3.0127176}},
{"name":"Green Ayre","address":"63 North Road, Lancaster, Lancashire","location":{"lat":54.0498738,"lng":-2.7995171}},
{"name":"Sir Richard Owen","address":"4 Spring Garden Street, Lancaster, Lancashire","location":{"lat":54.0468887,"lng":-2.80032}},
{"name":"Leyland Lion","address":"60 Hough Lane, Leyland, Lancashire","location":{"lat":53.6956087,"lng":-2.6932866}},
{"name":"Railway Hotel","address":"Station Road, Lytham, Lytham St Annes, Lancashire","location":{"lat":53.7374583,"lng":-2.9568927}},
{"name":"Eric Bartholomew","address":"10-18 Euston Road, Morecambe, Lancashire GBG 2013","location":{"lat":54.0724807,"lng":-2.8659605}},
{"name":"Greyfriar","address":"144 Friargate, Preston, Lancashire GBG 2013","location":{"lat":53.7601991,"lng":-2.7030112}},
{"name":"Trawl Boat Inn","address":"36-38 Wood Street, St Annes on Sea, Lytham St Annes, Lancashire GBG 2013","location":{"lat":53.7509412,"lng":-3.0299541}},
{"name":"Monkey Walk","address":"1 Marlborough Square, Coalville, Leicestershire","location":{"lat":52.7234986,"lng":-1.3750395}},
{"name":"Baron of Hinckley","address":"5-7 Regent Street, Hinckley, Leicestershire","location":{"lat":52.5408802,"lng":-1.3743459}},
{"name":"Corn Exchange","address":"1 The Corn Exchange, Market Place, Leicester, Leicestershire","location":null},
{"name":"High Cross","address":"103-105 High Street, Leicester, Leicestershire","location":{"lat":52.5707537,"lng":-1.1794987}},
{"name":"Last Plantagenet","address":"107 Granby Street, Leicester, Leicestershire","location":{"lat":52.632735,"lng":-1.1286255}},
{"name":"Amber Rooms","address":"Unit 15, The Rushes, Loughborough, Leicestershire","location":{"lat":52.7732902,"lng":-1.209433}},
{"name":"Moon & Bell","address":"6 Wards End, Loughborough, Leicestershire GBG 2013","location":null},
{"name":"Sugar Loaf","address":"18 High Street, Market Harborough, Leicestershire","location":{"lat":52.479008,"lng":-0.9223614}},
{"name":"Kettleby Cross","address":"Wilton Road, Market Harborough, Leicestershire","location":null},
{"name":"Lord Keeper of the Great Seal","address":"96-100 The Parade, Oadby, Leicestershire GBG 2013","location":null},
{"name":"White House","address":"375 Scraptoft Lane, Scraptoft, Leicestershire","location":{"lat":52.6435168,"lng":-1.046267}},
{"name":"William Wygston","address":"84 Leicester Road, Wigston Magna, Leicestershire GBG 2013","location":null},
{"name":"Moon under Water","address":"6 High Street, Boston, Lincolnshire GBG 2013","location":{"lat":52.9767149,"lng":-0.0243904}},
{"name":"Sweyn Forkbeard","address":"22-24 Silver Street, Gainsborough, Lincolnshire","location":{"lat":53.3989271,"lng":-0.7767518}},
{"name":"Tollemache Inn","address":"17 St Peters Hill, Grantham, Lincolnshire","location":{"lat":52.9101591,"lng":-0.6406555}},
{"name":"Ice Barque","address":"Unit 4, Riverhead, Frederick Ward Way, Grimsby, Lincolnshire","location":{"lat":53.5667073,"lng":-0.0872771}},
{"name":"Yarborough Hotel","address":"29 Bethlehem Street, Grimsby, Lincolnshire GBG 2013","location":{"lat":53.5642493,"lng":-0.0872258}},
{"name":"Forum","address":"13-14 Silver Street, Lincoln, Lincolnshire","location":{"lat":53.2294417,"lng":-0.5394332}},
{"name":"Ritz","address":"143-147 High Street, Lincoln, Lincolnshire GBG 2013","location":{"lat":53.2238653,"lng":-0.5436074}},
{"name":"Square Sail","address":"Odeon Cinema Complex, Brayford Wharf North, Lincoln, Lincolnshire","location":{"lat":53.2293991,"lng":-0.5464611}},
{"name":"Joseph Morton","address":"Hortons Yard, Kidgate, Louth, Lincolnshire GBG 2013","location":null},
{"name":"Blue Bell Inn","address":"1-7 Oswald Road, Scunthorpe, Lincolnshire GBG 2013","location":{"lat":53.5905693,"lng":-0.654278}},
{"name":"Red Lion","address":"2-4 Roman Bank, Skegness, Lincolnshire","location":{"lat":53.1947786,"lng":0.3498161}},
{"name":"Packhorse Inn","address":"7 Northgate, Sleaford, Lincolnshire GBG 2013","location":null},
{"name":"Ivy Wall","address":"18-19 New Road, Spalding, Lincolnshire GBG 2013","location":{"lat":52.7885672,"lng":-0.1513974}},
{"name":" Please note there are two landside bars at Heathrow Airport listed in the Airports section later in this document.","location":null},
{"name":"Red Lion & Pineapple","address":"281 High Street, Acton, W3 GBG 2013","location":{"lat":51.508243,"lng":-0.2767215}},
{"name":"Goodmans Field","address":"87-91 Mansell Street, Aldgate, E1 GBG 2013","location":null},
{"name":"Moon under Water","address":"194 Balham High Road, Balham, SW12","location":{"lat":51.4438874,"lng":-0.1529157}},
{"name":"Barking Dog","address":"61 Station Parade, Longbridge Road, Barking, IG11","location":{"lat":51.5461972,"lng":0.0945358}},
{"name":"New Fairlop Oak","address":"Fencepiece Road, Fulwell Cross, Barkingside, IG6","location":{"lat":51.6007349,"lng":0.0844793}},
{"name":"Asparagus","address":"1-13 Falcon Road, Battersea, SW11","location":{"lat":51.4699582,"lng":-0.1713583}},
{"name":"Furze Wren","address":"Unit 6, Broadway Square, Market Place, Bexleyheath, DA6 GBG 2013","location":null},
{"name":"Wrong'un","address":"234-236 The Broadway, Bexleyheath, DA6","location":{"lat":51.4577384,"lng":0.1374402}},
{"name":"Beehive","address":"407-409 Brixton Road, Brixton, SW9","location":{"lat":51.4637574,"lng":-0.1142796}},
{"name":"Brockley Barge","address":"184 Brockley Road, Brockley, SE4","location":{"lat":51.4640632,"lng":-0.0364963}},
{"name":"Greyhound","address":"205 High Street, Bromley, London, BR1","location":{"lat":51.4063367,"lng":0.0131601}},
{"name":"Richmal Crompton","address":"23 Westmoreland Place, Bromley, BR2","location":{"lat":51.397581,"lng":0.0137742}},
{"name":"Fox on the Hill","address":"149 Denmark Hill, Camberwell, SE5 GBG 2013","location":{"lat":51.4645938,"lng":-0.0903501}},
{"name":"Ice Wharf","address":"Units 1-2 Suffolk Wharf, 28 Jamestown Road, Camden Town, NW1","location":{"lat":51.5401993,"lng":-0.1459338}},
{"name":"London & Rye","address":"109 Rushey Green, Catford, SE6 GBG 2013","location":{"lat":51.4475132,"lng":-0.0175908}},
{"name":"Eva Hart","address":"1128 High Road, Chadwell Heath, RM6 GBG 2013","location":{"lat":51.5701648,"lng":0.1277517}},
{"name":"Kings Ford","address":"250-252 Chingford Mount Road, Chingford, E4","location":{"lat":51.6164279,"lng":-0.017253}},
{"name":"Green Man","address":"Basement, 1 Poultry, Bank, EC2","location":null},
{"name":"Crosse Keys","address":"9 Gracechurch Street, City, EC3 GBG 2013","location":null},
{"name":"Hamilton Hall","address":"Unit 32, Liverpool Street Station, Bishopsgate, EC2 GBG 2013","location":null},
{"name":"Liberty Bounds","address":"15 Trinity Square, Tower Hill, EC3","location":null},
{"name":"Moon under Water","address":"10 Varley Parade, The Hyde, Colindale, NW9","location":{"lat":51.587353,"lng":-0.2508933}},
{"name":"Colley Rowe Inn","address":"54-56 Collier Row Road, Collier Row, RM5 GBG 2013","location":{"lat":51.5989141,"lng":0.1610017}},
{"name":"Beaten Docket","address":"50-56 Cricklewood Broadway, Cricklewood, NW2","location":{"lat":51.5536109,"lng":-0.2115834}},
{"name":"Devonshire House","address":"2-4 Broadway, Crouch End, N8","location":{"lat":51.5782279,"lng":-0.1235448}},
{"name":"George","address":"17-21 George Street, Croydon, CR0 GBG 2013","location":{"lat":51.3740414,"lng":-0.0984047}},
{"name":"Milan Bar","address":"Unit C, Grants Entertainment Centre, 14-32 High Street, Croydon, CR0","location":{"lat":51.3730248,"lng":-0.1003821}},
{"name":"Ship of Fools","address":"9-11 London Road, Croydon, CR0 To close January 2013","location":{"lat":51.378529,"lng":-0.103295}},
{"name":"Skylark","address":"34-36 South End, Croydon, CR0 GBG 2013","location":{"lat":51.3657376,"lng":-0.0992744}},
{"name":"Lord Denman","address":"270-272 Heathway, Dagenham, RM10","location":{"lat":51.5423759,"lng":0.1480539}},
{"name":"Sir Malcom Balcon","address":"46-47 The Mall, Ealing, W5 GBG 2013","location":{"lat":51.5135172,"lng":-0.2980259}},
{"name":"Millers Well","address":"419-423 Barking Road, East Ham, E6","location":{"lat":51.533588,"lng":0.0583993}},
{"name":"Gilpins Bell","address":"50-54 Fore Street, Upper Edmonton, N18","location":{"lat":51.6097557,"lng":-0.0659474}},
{"name":"Rockingham Arms","address":"Ground Floor, Metro Central Heights, 119 Newington Causeway, Elephant & Castle, SE1","location":null},
{"name":"Bankers Draft","address":"80 Eltham High Street, Eltham, SE9","location":{"lat":51.4506782,"lng":0.0522729}},
{"name":"Moon under Water","address":"115-117 Chase Side, Enfield, EN2 GBG 2013","location":{"lat":51.6588959,"lng":-0.0877777}},
{"name":"Sir John Oldcastle","address":"29-35 Farringdon Road, Farringdon, EC1 GBG 2013","location":null},
{"name":"Moon on the Square","address":"Unit 30, The Centre, High Street, Feltham, TW13","location":{"lat":51.4463686,"lng":-0.4110616}},
{"name":"Hudson Bay","address":"1-5 Upton Lane, Forest Gate, E7","location":{"lat":51.5458648,"lng":0.0261124}},
{"name":"Capitol","address":"11-21 London Road, Forest Hill, SE23 GBG 2013","location":{"lat":51.4391399,"lng":-0.0546521}},
{"name":"Oyster Rooms","address":"Unit 3, First Floor, Fulham Broadway Centre, Fulham Broadway, Fulham, SW6","location":{"lat":51.4801478,"lng":-0.1963302}},
{"name":"Gate Clock","address":"210 Creek Road, Greenwich, SE10","location":{"lat":51.4814395,"lng":-0.0108548}},
{"name":"Baxters Court","address":"282-284 Mare Street, Hackney, E8","location":{"lat":51.5445061,"lng":-0.0554055}},
{"name":"Plough & Harrow","address":"120-124 King Street, Hammersmith, W6 GBG 2013","location":{"lat":51.4928126,"lng":-0.2311654}},
{"name":"William Morris","address":"Swan Island, 2-4 King Street, Hammersmith, W6","location":{"lat":51.4930759,"lng":-0.2256643}},
{"name":"Wetherspoons","address":"First Floor, O2 Centre, 255 Finchley Road, Hampstead, NW3","location":{"lat":51.555575,"lng":-0.17454}},
{"name":"Moon on the Hill","address":"373-375 Station Road, Harrow, HA1 GBG 2013","location":{"lat":51.5793128,"lng":-0.3340007}},
{"name":"Moon & Sixpence","address":"250 Uxbridge Road, Hatch End, HA5","location":{"lat":51.602638,"lng":-0.3859021}},
{"name":"Botwell Inn","address":"25-29 Coldharbour Lane, Hayes, UB3 GBG 2013","location":{"lat":51.5081608,"lng":-0.4163792}},
{"name":"White House","address":"The Arena, Bennetsfield Road, Stockley Park, Hayes, UB11 GBG 2013","location":null},
{"name":"Gatehouse","address":"1 North Road, Highgate, N6 GBG 2013","location":{"lat":51.5715288,"lng":-0.1501089}},
{"name":"Knights Templar","address":"95 Chancery Lane, Holborn, WC2 GBG 2013","location":null},
{"name":"Penderels Oak","address":"283-288 High Holborn, Holborn, WC1 GBG 2013","location":null},
{"name":"Shakespeares Head","address":"Africa House, 64-68 Kingsway, Holborn, WC2","location":null},
{"name":"Coronet","address":"338-346 Holloway Road, Holloway, N7 GBG 2013","location":{"lat":51.554904,"lng":-0.1147245}},
{"name":"JJ Moons","address":"Unit 3, 46-62 High Street, Hornchurch, RM12 GBG 2013","location":null},
{"name":"Moon under Water","address":"84-88 Staines Road, Hounslow, TW3 GBG 2013","location":{"lat":51.4669887,"lng":-0.369338}},
{"name":"Tichenham Inn","address":"11 Swakeleys Road, Ickenham, UB10","location":{"lat":51.5644659,"lng":-0.4449465}},
{"name":"Great Spoon of Ilford","address":"114-116 Cranbrook Road, Ilford, IG1","location":{"lat":51.5618589,"lng":0.0687665}},
{"name":"Ledger Building","address":"4 Hertsmere Road, Isle of Dogs, E14","location":{"lat":51.5078982,"lng":-0.0237557}},
{"name":"Angel","address":"3-5 Islington High Street, Islington, N1","location":{"lat":51.5323726,"lng":-0.1065866}},
{"name":"Glass Works","address":"Units 5&6, First Floor, N1 Centre, Parkfield Street, Islington, N1","location":{"lat":51.5347923,"lng":-0.1057891}},
{"name":"White Swan","address":"255-256 Upper Street, Islington, N1","location":{"lat":51.5457068,"lng":-0.10333}},
{"name":"New Moon","address":"25-26 Kenton Park Parade, Kenton Road, Kenton, HA3","location":{"lat":51.5874186,"lng":-0.302832}},
{"name":"JJ Moons","address":"553 Kingsbury Road, Kingsbury, NW9","location":{"lat":51.5855666,"lng":-0.2773765}},
{"name":"Kings Tun","address":"153-157 Clarence Street, Kingston upon Thames, KT1","location":{"lat":51.4115856,"lng":-0.3008925}},
{"name":"Edmund Halley","address":"25-27 Burnt Ash Road, Lee, SE12","location":{"lat":51.4563212,"lng":0.0114816}},
{"name":"Watch House","address":"198-204 Lewisham High Street, Lewisham, SE13 GBG 2013","location":{"lat":51.451638,"lng":-0.0168358}},
{"name":"Drum","address":"557-559 Lea Bridge Road, Leyton, E10 GBG 2013","location":{"lat":51.5749717,"lng":-0.0137155}},
{"name":"Walnut Tree","address":"857-861 High Road, Leytonstone, E11 GBG 2013","location":{"lat":51.5694968,"lng":0.0120983}},
{"name":"Tyburn","address":"18-20 Edgware Road, Marble Arch, W2","location":{"lat":51.5154457,"lng":-0.1758095}},
{"name":"Metropolitan Bar","address":"7 Station Approach, Marylebone Road, Marylebone, NW1","location":{"lat":51.5224764,"lng":-0.155371}},
{"name":"Half Moon","address":"213-223 Mile End Road, Mile End, E1","location":{"lat":51.5216626,"lng":-0.0472139}},
{"name":"White Lion of Mortimer","address":"223 London Road, Mitcham, CR4","location":{"lat":51.4053082,"lng":-0.1640015}},
{"name":"Railway Bell","address":"13 East Barnet Road, New Barnet, EN4","location":{"lat":51.650025,"lng":-0.1742589}},
{"name":"Watchman","address":"184 High Street, New Malden, KT3 (21st April 2012).","location":{"lat":51.3992204,"lng":-0.2555798}},
{"name":"Moon under Water","address":"1327 London Road, Norbury, SW16","location":{"lat":51.4070953,"lng":-0.1212757}},
{"name":"William Jolle","address":"53 The Broadway, Joel Street, Northwood Hills, HA6","location":{"lat":51.6010888,"lng":-0.4092435}},
{"name":"Nonsuch Inn","address":"552-556 London Road, North Cheam, SM3","location":{"lat":51.3721091,"lng":-0.2257041}},
{"name":"Tally Ho","address":"749 High Road, North Finchley, N12","location":{"lat":51.613736,"lng":-0.1764185}},
{"name":"Masque Haunt","address":"168-172 Old Street, Old Street, EC1","location":null},
{"name":"Harvest Moon","address":"141-143 High Street, Orpington, BR6","location":{"lat":51.3783738,"lng":0.1013962}},
{"name":"Alfred Herring","address":"316-322 Green Lanes, Palmers Green, N13 GBG 2013","location":{"lat":51.6193668,"lng":-0.1069487}},
{"name":"Kentish Drovers","address":"71-79 Peckham High Street, Peckham, SE15 GBG 2013","location":{"lat":51.4735605,"lng":-0.0699562}},
{"name":"Moon & Stars","address":"164-166 High Street, Penge, SE20","location":{"lat":51.4127487,"lng":-0.0508664}},
{"name":"Sovereign of the Seas","address":"109-111 Queensway, Petts Wood, BR5 GBG 2013","location":{"lat":51.3893582,"lng":0.0720873}},
{"name":"Picture Palace","address":"Howards Hall, Lincoln Road, Ponders End, EN3 GBG 2013","location":null},
{"name":"Foxley Hatch","address":"8-9 Russell Hill Parade, Russell Hill Road, Purley, CR2","location":null},
{"name":"Railway","address":"202 Upper Richmond Road, Putney, SW15","location":{"lat":51.4610857,"lng":-0.2174955}},
{"name":"Rocket","address":"Putney Wharf Tower, 16 Brewhouse Lane, Putney, SW15","location":{"lat":51.4651108,"lng":-0.2131076}},
{"name":"Village Inn","address":"402-408 Rayners Lane, Rayners Lane, HA5","location":{"lat":51.5767621,"lng":-0.3710751}},
{"name":"Edward Rayne","address":"8-12 Coombe Lane, Raynes Park, SW20","location":{"lat":51.4097644,"lng":-0.2286002}},
{"name":"Moon & Stars","address":"99-103 South Street, Romford, RM1 GBG 2013","location":{"lat":51.5759537,"lng":0.1831182}},
{"name":"Worlds Inn","address":"113-117 South Street, Romford, RM1","location":{"lat":51.5759537,"lng":0.1831182}},
{"name":"Surrey Docks","address":"185 Lower Road, Rotherhithe, SE16","location":{"lat":51.4925697,"lng":-0.0456294}},
{"name":"JJ Moons","address":"12 Victoria Road, Ruislip Manor, HA4 GBG 2013","location":{"lat":51.5734247,"lng":-0.4135717}},
{"name":"Sir Julian Huxley","address":"152-154 Addington Road, Selsdon, CR2","location":{"lat":51.3434681,"lng":-0.0624641}},
{"name":"Central Bar","address":"Unit 1, First Floor, West 12 Shopping & Leisure Centre, Shepherds Bush Green, Shepherds Bush, W12","location":{"lat":51.5038689,"lng":-0.2206316}},
{"name":"Tailors Chalk","address":"47-49 Sidcup High Street, Sidcup, DA14","location":{"lat":51.4259446,"lng":0.1039279}},
{"name":"Montagu Pyke","address":"105-107 Charing Cross Road, Soho, WC2","location":null},
{"name":"Moon under Water","address":"28 Leicester Square, Soho, WC2","location":null},
{"name":"New Crown","address":"80-84 Chase Side, Southgate, N14 GBG 2013","location":{"lat":51.6333467,"lng":-0.1306159}},
{"name":"Pommelers Rest","address":"196-198 Tower Bridge Road, Southwark, SE1","location":{"lat":51.5026243,"lng":-0.0772877}},
{"name":"William Stanley","address":"7-8 High Street, South Norwood, SE25","location":{"lat":51.3985126,"lng":-0.076467}},
{"name":"Man in the Moon","address":"1 Buckingham Parade, The Broadway, Stanmore, HA7","location":{"lat":51.6176717,"lng":-0.3099892}},
{"name":"Rochester Castle","address":"143-145 Stoke Newington High Street, Stoke Newington, N16","location":{"lat":51.5612689,"lng":-0.0741947}},
{"name":"Goldengrove","address":"146-148 The Grove, Stratford, E15","location":{"lat":51.5437231,"lng":0.0041354}},
{"name":"Holland Tringham","address":"107-109 Streatham High Road, Streatham, SW16","location":{"lat":51.4301346,"lng":-0.1298997}},
{"name":"Crown & Sceptre","address":"2a Streatham Hill, Streatham Hill, SW2 GBG 2013","location":{"lat":51.4449475,"lng":-0.1245714}},
{"name":"White Lion of Mortimer","address":"125-127 Stroud Green Road, Stroud Green, N4","location":{"lat":51.5693557,"lng":-0.1126409}},
{"name":"Cap in Hand","address":"174 Hook Rise North, Southborough, Surbiton, KT6","location":{"lat":51.3835579,"lng":-0.3027625}},
{"name":"Coronation Hall","address":"St Marks Hill, Surbiton, KT6 GBG 2013","location":null},
{"name":"Grapes","address":"198 High Street, Sutton, SM1","location":{"lat":51.3659198,"lng":-0.1940916}},
{"name":"Moon on the Hill","address":"5-9 Hill Road, Sutton, SM1","location":{"lat":51.3618788,"lng":-0.193384}},
{"name":"Flora Sandes","address":"2-4 Ambassador House, Brigstock Road, Thornton Heath, CR4","location":null},
{"name":"JJ Moons","address":"56a Tooting High Street, Tooting, SW17","location":{"lat":51.4278873,"lng":-0.1683631}},
{"name":"Toll Gate","address":"26-30 Turnpike Lane, Turnpike Lane, N8","location":null},
{"name":"William Webb Ellis","address":"24 London Road, Twickenham, TW1 GBG 2013","location":{"lat":51.447589,"lng":-0.3285474}},
{"name":"Postal Order","address":"32-33 Westow Street, Upper Norwood, SE19","location":{"lat":51.4178011,"lng":-0.0818992}},
{"name":"Good Yarn","address":"132 High Street, Uxbridge, UB8","location":{"lat":51.5461876,"lng":-0.4795175}},
{"name":"Wetherspoons","address":"Unit 5, Victoria Island, Victoria Station, Victoria, SW1 GBG 2013","location":null},
{"name":"Willow Walk","address":"25 Wilton Road, Victoria, SW1","location":null},
{"name":"Whispering Moon","address":"25 Ross Parade, Woodcote Road, Wallington, SM6 GBG 2013","location":null},
{"name":"George","address":"155-159 High Street, Wanstead, E11","location":{"lat":51.5767014,"lng":0.027686}},
{"name":"New Cross Turnpike","address":"55 Bellegrove Road, Welling, DA16 GBG 2013","location":{"lat":51.4629024,"lng":0.1039799}},
{"name":"JJ Moons","address":"397 High Road, Wembley, HA9","location":{"lat":51.5536047,"lng":-0.2927635}},
{"name":"Lord Moon of the Mall","address":"16-18 Whitehall, Westminster, SW1 GBG 2013","location":{"lat":51.5064597,"lng":-0.1275323}},
{"name":"Wibbas Down Inn","address":"6-12 Gladstone Road, Wimbledon, SW19","location":{"lat":51.4188791,"lng":-0.2024402}},
{"name":"Spouter's Corner","address":"Unit 5 Hollywood Green, 180 High Road, Wood Green, N22","location":{"lat":51.5965765,"lng":-0.1093915}},
{"name":"Great Harry","address":"7-9 Wellington Street, Woolwich, SE18","location":{"lat":51.4899907,"lng":0.0669624}},
{"name":"Unicorn","address":"1-7 Ashley Road, Altrincham, Greater Manchester","location":{"lat":53.3741637,"lng":-2.3419568}},
{"name":"Sir Thomas Gerard","address":"2 Gerard Street, Ashton in Makerfield, Greater Manchester GBG 2013","location":{"lat":53.4873167,"lng":-2.6372113}},
{"name":"Ash Tree","address":"18 Wellington Road, Ashton-under-Lyne, Greater Manchester GBG 2013","location":{"lat":53.4898903,"lng":-2.0924727}},
{"name":"Spinning Mule","address":"Unit 2, Nelson Square, Bolton, Greater Manchester GBG 2013","location":null},
{"name":"Art Picture House","address":"36 Haymarket Street, Bury, Greater Manchester GBG 2013","location":{"lat":53.592074,"lng":-2.2979348}},
{"name":"Robert Peel","address":"5-10 Market Place, Bury, Greater Manchester GBG 2013","location":{"lat":53.6490355,"lng":-2.3171914}},
{"name":"Kings Hall","address":"11-13 Station Road, Cheadle Hulme, Greater Manchester","location":{"lat":53.3774689,"lng":-2.1897115}},
{"name":"Sedge Lynn","address":"21a Manchester Road, Chorlton-cum-Hardy, Greater Manchester","location":{"lat":53.4442692,"lng":-2.2790581}},
{"name":"Milson Rhodes","address":"1d School Lane, Didsbury, Greater Manchester GBG 2013","location":{"lat":53.4175107,"lng":-2.2300089}},
{"name":"Castle in the Air","address":"Chill Factor E Ski Centre, Trafford Quays Leisure Village, Trafford Way, Dumplington, Greater Manchester","location":{"lat":53.4978482,"lng":-2.3187759}},
{"name":"Mardis Gras","address":"Unit 108-111, New Orleans, First Floor, Trafford Centre, Trafford Boulevard, Dumplington, Greater Manchester","location":{"lat":53.4978482,"lng":-2.3187759}},
{"name":"Gateway","address":"882 Wilmslow Road, East Didsbury, Greater Manchester","location":{"lat":53.4170355,"lng":-2.2315502}},
{"name":"Eccles Cross","address":"13 Regent Street, Eccles, Greater Manchester GBG 2013","location":{"lat":53.4826163,"lng":-2.3334875}},
{"name":"Great Central","address":"Wilmslow Road, Fallowfield, Greater Manchester","location":{"lat":53.4352883,"lng":-2.2263528}},
{"name":"Wilfred Wood","address":"204 London Road, Hazel Grove, Greater Manchester","location":{"lat":53.379338,"lng":-2.1198837}},
{"name":"Edwin Waugh","address":"10-12 Market Street, Heywood, Greater Manchester","location":{"lat":53.5941092,"lng":-2.2214295}},
{"name":"Cotton Bale","address":"21-25 Market Place, Hyde, Greater Manchester","location":{"lat":53.4516798,"lng":-2.0783682}},
{"name":"Thomas Burke","address":"20a Leigh Road, Leigh, Greater Manchester GBG 2013","location":null},
{"name":"Manchester & County","address":"49 Piccadilly, Manchester, Greater Manchester","location":{"lat":53.4806703,"lng":-2.2339946}},
{"name":"Moon under Water","address":"68-74 Deansgate, Manchester, Greater Manchester","location":{"lat":53.4828915,"lng":-2.2470036}},
{"name":"Paramount","address":"33-35 Oxford Street, Manchester, Greater Manchester GBG 2013","location":{"lat":53.4767164,"lng":-2.2426284}},
{"name":"Seven Stars","address":"Balloon Lane, The Printworks, 6-8 Dantzic Street, Manchester, Greater Manchester","location":{"lat":53.4978482,"lng":-2.3187759}},
{"name":"Waterhouse","address":"67-71 Princess Street, Manchester, Greater Manchester GBG 2013","location":{"lat":53.4790083,"lng":-2.2427018}},
{"name":"Harbord Harbord","address":"17-21 Long Street, Middleton, Greater Manchester","location":{"lat":53.5503598,"lng":-2.1980273}},
{"name":"Squire Knott","address":"Yorkshire Street, Oldham, Greater Manchester","location":{"lat":53.5422211,"lng":-2.1083684}},
{"name":"Up Steps Inn","address":"17-23 High Street, Oldham, Greater Manchester GBG 2013","location":{"lat":53.5751517,"lng":-2.0955977}},
{"name":"Regal Moon","address":"The Butts, Rochdale, Greater Manchester GBG 2013","location":{"lat":53.6173377,"lng":-2.1576615}},
{"name":"Ford Madox Brown","address":"Unit 3, Wilmslow Park, Oxford Road, Rusholme, Manchester, Greater Manchester GBG 2013","location":null},
{"name":"JP Joule","address":"2a Northenden Road, Sale, Greater Manchester GBG 2013","location":{"lat":53.4241104,"lng":-2.3175006}},
{"name":"Shay Wake","address":"2-10 Milnrow Road, Shaw, Greater Manchester","location":{"lat":53.5780962,"lng":-2.0930107}},
{"name":"Society Rooms","address":"49-51 Grosvenor Street, Stalybridge, Greater Manchester","location":{"lat":53.4813503,"lng":-2.0580981}},
{"name":"Calverts Court","address":"13 St Petersgate, Stockport, Greater Manchester","location":{"lat":53.410465,"lng":-2.1576031}},
{"name":"Bishop Blaize","address":"708 Chester Road, Old Trafford, Stretford, Greater Manchester","location":{"lat":53.4611244,"lng":-2.2881691}},
{"name":"Tim Bobbin","address":"41 Flixton Road, Urmston, Greater Manchester","location":{"lat":53.4475899,"lng":-2.3613643}},
{"name":"Bulls Head","address":"12 High Street, Walkden, Greater Manchester","location":{"lat":53.5240503,"lng":-2.4006585}},
{"name":"Robert Shaw","address":"34-40 Market Street, Westhoughton, Greater Manchester GBG 2013","location":{"lat":53.5488524,"lng":-2.5217396}},
{"name":"Brocket Arms (WL)","address":"38 Mesnes Road, Swinley, Wigan, Greater Manchester GBG 2013","location":null},
{"name":"Moon under Water","address":"5-7a Market Place, Wigan, Greater Manchester","location":{"lat":53.5363454,"lng":-2.5772277}},
{"name":"Brass Balance","address":"39-47 Argyle Street, Birkenhead, Merseyside","location":{"lat":53.3917077,"lng":-3.0178944}},
{"name":"John Laird","address":"Unit 4, Europa Centre, Claughton Road, Birkenhead, Merseyside","location":{"lat":53.390518,"lng":-3.0286871}},
{"name":"Merton Inn","address":"42 Merton Road, Bootle, Merseyside","location":{"lat":53.4487053,"lng":-2.9898644}},
{"name":"Wild Rose","address":"2a & 1b Triad Centre, Stanley Road, Bootle, Merseyside","location":{"lat":53.451566,"lng":-2.9906223}},
{"name":"Childwall Fiveways Hotel","address":"179 Queens Drive Wavertree, Childwall, Merseyside GBG 2013","location":null},
{"name":"Hoylake Lights","address":"52-54 Market Street, Hoylake, Merseyside","location":{"lat":53.3928958,"lng":-3.176168}},
{"name":"Barkers Brewery","address":"2 Archway Road, Huyton, Merseyside","location":{"lat":53.4092369,"lng":-2.8467954}},
{"name":"Picturedrome","address":"286 Kensington, Kensington, Liverpool, Merseyside (Freehold for sale, July 2012)","location":{"lat":53.4119736,"lng":-2.9474461}},
{"name":"Gold Balance","address":"6-10 Newtown Gardens, Kirkby, Merseyside","location":{"lat":53.4813558,"lng":-2.8868738}},
{"name":"Thomas Frost","address":"177-187 Walton Road, Kirkdale, Merseyside GBG 2013","location":{"lat":53.4358506,"lng":-2.9727477}},
{"name":"Fall Well","address":"1-2 Brythen Street, Liverpool, Merseyside GBG 2013","location":{"lat":53.4071743,"lng":-2.9823352}},
{"name":"Lime Kiln","address":"Concert Street, Liverpool, Merseyside","location":{"lat":53.4031152,"lng":-2.9803378}},
{"name":"Richard John Blackler","address":"Units 1 & 2 Charlotte Row, Great Charlotte Street, Liverpool, Merseyside GBG 2013","location":null},
{"name":"Welkin","address":"7 Whitechapel, Liverpool, Merseyside","location":{"lat":53.4067462,"lng":-2.984907}},
{"name":"Frank Hornby","address":"38-44 Eastway, Maghull, Merseyside","location":{"lat":53.5153632,"lng":-2.9368033}},
{"name":"Mockbeggar Hall","address":"239-241 Hoylake Road, Moreton, Merseyside","location":{"lat":53.4013055,"lng":-3.110681}},
{"name":"John Masefield","address":"70-72 New Chester Road, New Ferry, Merseyside GBG 2013","location":{"lat":53.361305,"lng":-2.9977703}},
{"name":"Navigator","address":"694 Queens Drive Stoneycroft, Old Swan, Merseyside GBG 2013","location":null},
{"name":"Watch Maker","address":"60-62 Eccleston Street, Prescot, Merseyside","location":{"lat":53.4298018,"lng":-2.8021567}},
{"name":"Glass House","address":"5 Market Street, St Helens, Merseyside GBG 2013","location":{"lat":53.451414,"lng":-2.736046}},
{"name":"Running Horses","address":"Cineworld, St Helens Leisure Park, Chalon Way West, St Helens, Merseyside GBG 2013","location":null},
{"name":"Sir Henry Segrave","address":"93-97 Lord Street, Southport, Merseyside GBG 2013","location":{"lat":53.6458052,"lng":-3.0112524}},
{"name":"Willow Grove","address":"387-389 Lord Street, Southport, Merseyside GBG 2013","location":{"lat":53.648441,"lng":-3.0053673}},
{"name":"Clairville","address":"48 Wallasey Road, Liscard, Wallasey, Merseyside","location":{"lat":53.4197396,"lng":-3.0475302}},
{"name":"Raven","address":"72-74 Walton Vale, Walton, Merseyside","location":{"lat":53.4630067,"lng":-2.9593791}},
{"name":"Queens Picture House","address":"47-49 South Road, Waterloo, Merseyside","location":{"lat":53.4742176,"lng":-3.0275351}},
{"name":"Dee Hotel","address":"44 Grange Road, West Kirby, Merseyside","location":{"lat":53.3728135,"lng":-3.1824695}},
{"name":"Romany Rye (WL)","address":"Church Street, East Dereham, Norfolk GBG 2013","location":{"lat":52.6809318,"lng":0.9399884}},
{"name":"Troll Cart","address":"7-9 Regent Road, Great Yarmouth, Norfolk","location":{"lat":52.6075791,"lng":1.7306185}},
{"name":"Globe Hotel (WL)","address":"Tuesday Market Place, Kings Lynn, Norfolk","location":{"lat":52.7568136,"lng":0.3944815}},
{"name":"Lattice House","address":"Chapel Street, Kings Lynn, Norfolk GBG 2013","location":{"lat":52.7561578,"lng":0.3966234}},
{"name":"Bell Hotel","address":"5 Orford Hill, Norwich, Norfolk","location":{"lat":52.6272255,"lng":1.2951495}},
{"name":"Glass House","address":"11-13 Wensum Street, Norwich, Norfolk","location":{"lat":52.6326895,"lng":1.2978812}},
{"name":"Queen of the Iceni","address":"Unit 6, Riverside, Norwich, Norfolk","location":{"lat":52.5590841,"lng":1.5730712}},
{"name":"Whiffler","address":"Boundary Road, Hellesdon, Norwich, Norfolk","location":{"lat":52.654316,"lng":1.2695995}},
{"name":"Red Lion","address":"Market Place, Thetford, Norfolk","location":{"lat":52.4133121,"lng":0.7509831}},
{"name":"Samuel Lloyd","address":"Zone 7, Princewood Road, Rockingham Park, Earlstrees Industrial Estate, Corby, Northamptonshire","location":{"lat":52.5089218,"lng":-0.6942892}},
{"name":"Saracens Head","address":"1 Brook Street, Daventry, Northamptonshire","location":{"lat":52.13875,"lng":-1.1635225}},
{"name":"Earl of Dalkeith","address":"13-15 Dalkeith Place, Kettering, Northamptonshire","location":{"lat":52.3994115,"lng":-0.7257772}},
{"name":"Cordwainer","address":"The Ridings, Northampton, Northamptonshire","location":{"lat":52.2381726,"lng":-0.8917077}},
{"name":"Eastgate","address":"98-102 Abington Street, Northampton, Northamptonshire GBG 2013","location":{"lat":52.2393662,"lng":-0.8900113}},
{"name":"Moon on the Square","address":"6 The Parade, Market Square, Northampton, Northamptonshire GBG 2013","location":null},
{"name":"Railway Inn","address":"143 High Street, Rushden, Northamptonshire","location":{"lat":52.2934235,"lng":-0.5990825}},
{"name":"Red Well","address":"16 Silver Street, Wellingborough, Northamptonshire","location":{"lat":52.3017126,"lng":-0.6953341}},
{"name":"Rohan Kanhai","address":"1-4 Woodhorn Road, Ashington, Northumberland","location":{"lat":55.1834902,"lng":-1.5675638}},
{"name":"Red Lion","address":"Front Street West, Bedlington, Northumberland","location":{"lat":55.1253523,"lng":-1.5659878}},
{"name":"Leaping Salmon","address":"Golden Square, Berwick-upon-Tweed, Northumberland","location":{"lat":55.7699903,"lng":-2.0059262}},
{"name":"Forum","address":"8-9 Market Place, Hexham, Northumberland","location":{"lat":54.971458,"lng":-2.1004915}},
{"name":"Electrical Wizard","address":"11 New Market, Morpeth, Northumberland","location":{"lat":55.1667879,"lng":-1.6904958}},
{"name":"Ernehale","address":"149-151 Nottingham Road, Arnold, Nottinghamshire","location":{"lat":53.001748,"lng":-1.1304174}},
{"name":"Last Post","address":"Chilwell Road, Beeston, Nottinghamshire","location":{"lat":52.924371,"lng":-1.2182046}},
{"name":"William Peverel","address":"245-259 Main Street, Bulwell, Nottinghamshire","location":{"lat":53.0029551,"lng":-1.1962283}},
{"name":"Free Man","address":"334-336 Carlton Hill, Thorneywood, Carlton, Nottinghamshire","location":{"lat":52.9658378,"lng":-1.1105057}},
{"name":"Pilgrim Oak","address":"44-46 High Street, Hucknall, Nottinghamshire","location":{"lat":53.0380987,"lng":-1.2025259}},
{"name":"Court House","address":"Market Place, Mansfield, Nottinghamshire GBG 2013","location":{"lat":53.1654081,"lng":-1.1926302}},
{"name":"Stag & Pheasant","address":"Unit 4, Clumber Street, Mansfield, Nottinghamshire GBG 2013","location":null},
{"name":"Widow Frost","address":"41-43 Leeming Street, Mansfield, Nottinghamshire GBG 2013","location":{"lat":53.1455968,"lng":-1.1949428}},
{"name":"Woodthorpe Top","address":"151a Woodthorpe Drive, Mapperley, Nottingham, Nottinghamshire","location":{"lat":52.9835002,"lng":-1.1236426}},
{"name":"Sir John Arderne","address":"1-3 Church Street, Newark, Nottinghamshire","location":{"lat":53.1395686,"lng":-1.0292869}},
{"name":"Company Inn","address":"Castle Wharf, Canal Street, Nottingham, Nottinghamshire","location":{"lat":52.9485103,"lng":-1.1500296}},
{"name":"Gooseberry Bush","address":"Peel Street, Nottingham, Nottinghamshire","location":{"lat":52.9599328,"lng":-1.1552106}},
{"name":"Joseph Else","address":"11-12 South Parade, Market Square, Nottingham, Nottinghamshire","location":{"lat":39.9514867,"lng":-75.1599514}},
{"name":"Lloyds No. 1","address":"1 Carlton Street, Hockley, Nottingham, Nottinghamshire","location":{"lat":52.9536803,"lng":-1.1407476}},
{"name":"Roebuck Inn","address":"9-11 St James Street, Nottingham, Nottinghamshire","location":{"lat":52.9527601,"lng":-1.1522385}},
{"name":"Dominie Cross","address":"38 Grove Street, Retford, Nottinghamshire","location":{"lat":53.3224388,"lng":-0.9399018}},
{"name":"Samuel Hall","address":"Old Bus Depot, Mansfield Road, Sherwood, Nottinghamshire","location":{"lat":53.1170082,"lng":-1.1053558}},
{"name":"Admiral Sir John Borlase Warren","address":"97 Derby Road, Stapleford, Nottingham, Nottinghamshire","location":{"lat":52.9362014,"lng":-1.2496334}},
{"name":"Picture House","address":"Fox Street, Sutton in Ashfield, Nottinghamshire","location":{"lat":53.1262944,"lng":-1.260979}},
{"name":"Trent Bridge Inn","address":"2 Radcliffe Road, West Bridgford, Nottingham, Nottinghamshire","location":{"lat":52.9373457,"lng":-1.1341936}},
{"name":"Liquorice Gardens","address":"1a Newcastle Street, Worksop, Nottinghamshire","location":{"lat":53.3043243,"lng":-1.1236949}},
{"name":"Exchange","address":"49-50 High Street, Banbury, Oxfordshire","location":{"lat":52.0606019,"lng":-1.3390387}},
{"name":"Fleur-de-Lis","address":"63-67 Broad Street, Banbury, Oxfordshire","location":{"lat":52.0606894,"lng":-1.3348573}},
{"name":"Penny Black","address":"58 Sheep Street, Bicester, Oxfordshire","location":{"lat":51.8992811,"lng":-1.1523533}},
{"name":"William Morris","address":"59a Between Towns Road, Cowley, Oxfordshire","location":{"lat":51.7324206,"lng":-1.2173157}},
{"name":"Catherine Wheel (WL)","address":"7-15 Hart Street, Henley on Thames, Oxfordshire","location":{"lat":51.5377218,"lng":-0.9038316}},
{"name":"Four Candles","address":"51-53 George Street, Oxford, Oxfordshire","location":{"lat":51.7534749,"lng":-1.2622406}},
{"name":"Swan & Castle","address":"Castle Street, Oxford, Oxfordshire","location":{"lat":51.7511364,"lng":-1.2614118}},
{"name":"Company of Weavers","address":"31 Market Square, Witney, Oxfordshire","location":{"lat":51.7836079,"lng":-1.4848649}},
{"name":" Please note there are three landside bars","address":"one each at Aberdeen, Edinburgh and Glasgow Airports, listed in the Airports section later in this document.","location":{"lat":55.864237,"lng":-4.251806}},
{"name":"Archibald Simpson","address":"5 Castle Street, Aberdeen, Scotland GBG 2013","location":{"lat":57.1484917,"lng":-2.0921654}},
{"name":"Justice Mill","address":"423-425 Union Street, Aberdeen, Scotland","location":{"lat":57.1459634,"lng":-2.1008171}},
{"name":"Robert Hamilton","address":"12-14 Bank Street, Airdrie, Scotland","location":{"lat":55.8667293,"lng":-3.9807795}},
{"name":"Esquire House","address":"1487 Great Western Road, Anniesland, Glasgow, Scotland GBG 2013","location":{"lat":55.8884733,"lng":-4.3216766}},
{"name":"Corn Exchange","address":"Market Place, Arbroath, Scotland GBG 2013","location":{"lat":56.5588398,"lng":-2.5823309}},
{"name":"West Kirk","address":"58a Sandgate, Ayr, Scotland GBG 2013","location":{"lat":55.4629016,"lng":-4.6340347}},
{"name":"James Young","address":"36-40 Hopetoun Street, Bathgate, Scotland","location":{"lat":55.9028557,"lng":-3.6405359}},
{"name":"Lord of the Isles","address":"Unit 21, Xscape Centre, Kings Inch Road, Braehead, Renfrew, Scotland GBG 2013","location":null},
{"name":"Vulcan","address":"181 Main Street, Coatbridge, Scotland GBG 2013","location":{"lat":55.8615813,"lng":-4.0224563}},
{"name":"White Lady (WL)","address":"92-98 St John's Road, Corstorphine, Edinburgh, Scotland","location":{"lat":55.9428881,"lng":-3.2823748}},
{"name":"Carrick Stone","address":"Units 52-54, Teviot Walk, Ground Floor, Cumbernauld Shopping, Central Way, Carbrain, Cumbernauld, Scotland","location":{"lat":55.9469294,"lng":-3.9899757}},
{"name":"Blacksmiths Forge","address":"5 Newmills Road, Dalkeith, Scotland GBG 2013","location":{"lat":55.8929689,"lng":-3.068572}},
{"name":"Robert the Bruce","address":"81-83 Buccleuch Street, Dumfries, Scotland GBG 2013","location":{"lat":55.0694372,"lng":-3.6160362}},
{"name":"Capitol","address":"7-9 Seagate, Dundee, Scotland","location":{"lat":56.4617655,"lng":-2.9670516}},
{"name":"Counting House","address":"67-71 Reform Street, Dundee, Scotland GBG 2013","location":{"lat":56.4621344,"lng":-2.9719116}},
{"name":"Guildhall and Linen Exchange","address":"79-83 High Street, Dunfermline, Scotland","location":{"lat":56.0714138,"lng":-3.4612766}},
{"name":"Alexander Graham Bell","address":"128 George Street, Edinburgh, Scotland","location":{"lat":55.9520623,"lng":-3.2054524}},
{"name":"Playfair","address":"Unit 1, Omni Centre, Leith Walk, Edinburgh, Scotland","location":{"lat":55.9562006,"lng":-3.1854934}},
{"name":"Standing Order","address":"62-66 George Street, Edinburgh, Scotland","location":{"lat":55.9529793,"lng":-3.1995964}},
{"name":"Muckle Cross","address":"34 High Street, Elgin, Scotland GBG 2013","location":{"lat":57.6469663,"lng":-3.3226681}},
{"name":"Carron Works","address":"Bank Street, Falkirk, Scotland GBG 2013","location":{"lat":56.0001392,"lng":-3.7836502}},
{"name":"Hunters Hall","address":"56-58 High Street, Galashiels, Scotland","location":{"lat":55.61772,"lng":-2.810908}},
{"name":"Camperdown Place","address":"4-5 West George Street, Glasgow, Scotland GBG 2013","location":{"lat":55.8013765,"lng":-4.3972347}},
{"name":"Counting House","address":"2 St Vincent Place, Glasgow, Scotland","location":{"lat":55.8610049,"lng":-4.2517837}},
{"name":"Crystal Palace","address":"36 Jamaica Street, Glasgow, Scotland","location":{"lat":55.8574912,"lng":-4.2573578}},
{"name":"Edward G. Wylie","address":"103-107 Bothwell Street, Glasgow, Scotland","location":{"lat":55.8614061,"lng":-4.2626061}},
{"name":"Henglers Circus","address":"351-363 Sauchiehall Street, Glasgow, Scotland GBG 2013","location":{"lat":55.8656889,"lng":-4.2672735}},
{"name":"Sir John Moore","address":"260-292 Argyle Street, Glasgow, Scotland GBG 2013","location":{"lat":55.8588897,"lng":-4.2607414}},
{"name":"Society Room","address":"151 West George Street, Glasgow, Scotland GBG 2013","location":{"lat":55.8620912,"lng":-4.2575026}},
{"name":"Golden Acorn (WL)","address":"1 North Street, Glenrothes, Scotland GBG 2013","location":{"lat":56.1964839,"lng":-3.1676892}},
{"name":"Earl of Zetland","address":"Bo'ness Road, Grangemouth, Scotland GBG 2013","location":{"lat":56.0139957,"lng":-3.7012637}},
{"name":"James Watt","address":"80-92 Cathcart Street, Greenock, Scotland GBG 2013","location":{"lat":55.9468388,"lng":-4.7535401}},
{"name":"Bourtree","address":"22 Bourtree Place, Hawick, Scotland GBG 2013","location":{"lat":55.425491,"lng":-2.7833478}},
{"name":"Henry Bell","address":"19-29 James Street, Helensburgh, Scotland.","location":{"lat":56.0052495,"lng":-4.7368424}},
{"name":"Kings Highway (WL)","address":"72-74 Church Street, Inverness, Scotland GBG 2013","location":{"lat":57.4797777,"lng":-4.2276901}},
{"name":"Gordon Highlander","address":"71 West High Street, Inverurie, Scotland GBG 2013","location":{"lat":57.2850051,"lng":-2.379882}},
{"name":"Wheatsheaf Inn","address":"Unit 5, Portland Gate, Portland Street, Kilmarnock, Scotland GBG 2013","location":null},
{"name":"Robert Nairn","address":"2-6 Kirk Wynd, Kirkcaldy, Scotland GBG 2013","location":{"lat":56.1119124,"lng":-3.1579833}},
{"name":"Kirky Puffer","address":"1-11 Townhead, Kirkintilloch, Scotland GBG 2013","location":{"lat":55.9379109,"lng":-4.154187}},
{"name":"Clydesdale Inn","address":"15 Bloomgate, Lanark, Scotland GBG 2013","location":{"lat":55.6737652,"lng":-3.7814701}},
{"name":"Foot of the Walk","address":"183 Constitution Street, Leith, Scotland","location":{"lat":55.9715257,"lng":-3.1699231}},
{"name":"Almond Bank","address":"30-32 McArthur Glen Designer Outlet, Almondvale Road, Almondvale, Livingston, Scotland","location":{"lat":55.8812122,"lng":-3.5171185}},
{"name":"NewYearField","address":"1 McArthur Glen Designer Outlet, Almondvale Road, Almondvale, Livingston, Scotland","location":{"lat":55.8812122,"lng":-3.5171185}},
{"name":"Brandon Works","address":"45-61 Merry Street, Motherwell, Scotland GBG 2013","location":{"lat":55.7914965,"lng":-3.9913333}},
{"name":"David Macbeth Moir","address":"82-84 North High Street, Musselburgh, Scotland","location":{"lat":55.9438986,"lng":-3.0585806}},
{"name":"Last Post","address":"2 County Square, Paisley, Scotland GBG 2013","location":{"lat":55.8465147,"lng":-4.4241822}},
{"name":"Capital Asset","address":"26 Tay Street, Perth, Scotland GBG 2013","location":{"lat":56.3965884,"lng":-3.4258828}},
{"name":"Cross Keys","address":"7-9 Back Street, Kirktown, Peterhead, Scotland GBG 2013","location":null},
{"name":"Prestwick Pioneer","address":"87 Main Street, Prestwick, Scotland","location":{"lat":55.4995811,"lng":-4.6108446}},
{"name":"An Ruadh Ghlean","address":"40-44 Main Street, Rutherglen, Scotland","location":{"lat":55.8282171,"lng":-4.2175317}},
{"name":"Salt Cot","address":"7 Hamilton Street, Saltcoats, Scotland GBG 2013","location":{"lat":55.6334835,"lng":-4.7892754}},
{"name":"Sir John Stirling Maxwell","address":"Unit 13b, Shawlands Arcade, 104 Kilmarnock Road, Shawlands, Glasgow, Scotland GBG 2013","location":null},
{"name":"Alexander Bain","address":"Market Place, Wick, Scotland GBG 2013","location":{"lat":58.4422836,"lng":-3.0907825}},
{"name":"Wishaw Malt","address":"62-66 Kirk Road, Wishaw, Scotland GBG 2013","location":{"lat":55.7741559,"lng":-3.9181047}},
{"name":"Jewel of the Severn","address":"80-81 High Street, Bridgnorth, Shropshire","location":{"lat":52.5367072,"lng":-2.4202756}},
{"name":"Hippodrome","address":"34 Queen Street, Market Drayton, Shropshire","location":{"lat":52.9060546,"lng":-2.4858277}},
{"name":"Wilfred Owen","address":"17 Willow Street, Oswestry, Shropshire","location":{"lat":52.8592011,"lng":-3.0563458}},
{"name":"Montgomery's Tower","address":"Lower Claremont Bank, Shrewsbury, Shropshire","location":{"lat":52.70927,"lng":-2.7584272}},
{"name":"Shrewsbury Hotel (WL)","address":"Bridge Place, Shrewsbury, Shropshire","location":{"lat":52.7091995,"lng":-2.7577673}},
{"name":"Thomas Botfield","address":"Unit I, Central Square, Telford Shopping Centre, Hollinswood, Telford, Shropshire","location":{"lat":52.676105,"lng":-2.439065}},
{"name":"William Withering","address":"43-45 New Street, Wellington, Shropshire GBG 2013","location":{"lat":52.7006751,"lng":-2.5169803}},
{"name":"King of Wessex","address":"Kingsmead Leisure Complex, 5-10 St James Street West, Bath, Somerset","location":{"lat":51.3812909,"lng":-2.3650805}},
{"name":"Carnival Inn","address":"37 St Mary Street, Bridgwater, Somerset GBG 2013","location":{"lat":51.12744,"lng":-3.0039908}},
{"name":"Reeds Arms","address":"1 Pier Street, Burnham on Sea, Somerset","location":{"lat":51.2343232,"lng":-2.9987667}},
{"name":"Cerdic","address":"49-51 Fore Street, Chard, Somerset","location":{"lat":50.87313,"lng":-2.9625605}},
{"name":"Duke of Wellington (WL)","address":"Wellington Square, Minehead, Somerset","location":{"lat":51.2057482,"lng":-3.4791684}},
{"name":"Glassmaker","address":"12 Crown Glass Place, Nailsea, Somerset","location":{"lat":51.4323214,"lng":-2.7585847}},
{"name":"Lantokay","address":"111-113 High Street, Street, Somerset","location":{"lat":51.125864,"lng":-2.7414475}},
{"name":"Coal Orchard","address":"30 Bridge Street, Taunton, Somerset","location":{"lat":51.0183396,"lng":-3.1046832}},
{"name":"Perkin Warbeck","address":"22-23 East Street, Taunton, Somerset","location":{"lat":51.0147453,"lng":-3.0993164}},
{"name":"Cabot Court Hotel (WL)","address":"Knightstone Road, Weston-super-Mare, Somerset","location":{"lat":51.3518148,"lng":-2.9847841}},
{"name":"Dragon Inn","address":"15 Meadow Street, Weston-super-Mare, Somerset GBG 2013","location":{"lat":51.3483004,"lng":-2.9768907}},
{"name":"William Dampier","address":"97 Middle Street, Yeovil, Somerset","location":{"lat":50.9419,"lng":-2.6268506}},
{"name":"Bradley Green","address":"68 High Street, Biddulph, Staffordshire","location":{"lat":53.1169679,"lng":-2.1757422}},
{"name":"Lord Burton","address":"154 High Street, Burton upon Trent, Staffordshire","location":{"lat":52.8027359,"lng":-1.6295655}},
{"name":"Linford Arms","address":"79 Market Place, Cannock, Staffordshire GBG 2013","location":{"lat":52.6896205,"lng":-2.03175}},
{"name":"Wheatsheaf","address":"53 High Street, Cheadle, Staffordshire","location":{"lat":52.9867176,"lng":-1.9898766}},
{"name":"Reginald Mitchell","address":"20 Parliament Row, Hanley, Staffordshire","location":{"lat":53.0253938,"lng":-2.1741434}},
{"name":"Acorn Inn","address":"16-18 Tamworth Street, Lichfield, Staffordshire","location":{"lat":52.6837286,"lng":-1.826008}},
{"name":"Gatehouse","address":"1 Bird Street, Lichfield, Staffordshire","location":{"lat":52.6821896,"lng":-1.8294496}},
{"name":"Arnold Machin","address":"37 Ironmarket, Newcastle-under-Lyme, Staffordshire","location":{"lat":53.0122108,"lng":-2.2253793}},
{"name":"Plaza","address":"Horsefair, Rugeley, Staffordshire GBG 2013","location":null},
{"name":"Butlers Bell","address":"25-27 Gaolgate Street, Stafford, Staffordshire","location":{"lat":52.8083189,"lng":-2.1181979}},
{"name":"Picture House","address":"Bridge Street, Stafford, Staffordshire","location":{"lat":52.8044182,"lng":-2.1157303}},
{"name":"Wheatsheaf","address":"84-92 Church Street, Stoke-on-Trent, Staffordshire GBG 2013","location":{"lat":53.0040581,"lng":-2.1852917}},
{"name":"Poste of Stone","address":"1 Granville Square, Stone, Staffordshire","location":{"lat":52.9031562,"lng":-2.1481874}},
{"name":"Bole Bridge","address":"8 Bolebridge Street, Tamworth, Staffordshire","location":{"lat":52.6331722,"lng":-1.6919389}},
{"name":" Tamworth:","address":"Silk Kite, 59-60 Church Street, Tamworth, Staffordshire","location":{"lat":52.6338434,"lng":-1.6957867}},
{"name":"Old Swan","address":"Market Place, Uttoxeter, Staffordshire GBG 2013","location":{"lat":52.8981353,"lng":-1.8638983}},
{"name":"Corn Exchange","address":"Abbeygate Street, Bury St Edmunds, Suffolk","location":{"lat":52.2447832,"lng":0.7140484}},
{"name":"Drabbet Smock","address":"5-6 Peas Hill, Haverhill, Suffolk","location":{"lat":52.1872472,"lng":0.9707801}},
{"name":"Cricketers","address":"51 Crown Street, Ipswich, Suffolk","location":{"lat":52.0595425,"lng":1.1553811}},
{"name":"Robert Ransome","address":"Trafalgar House, Tower Street, Ipswich, Suffolk GBG 2013","location":null},
{"name":"Wetherspoons","address":"10 Corn Hill, Ipswich, Suffolk","location":{"lat":52.0578141,"lng":1.1521116}},
{"name":"Golden Lion","address":"44 High Street, Newmarket, Suffolk","location":{"lat":52.244409,"lng":0.4067886}},
{"name":"Willow Tree","address":"101-103 Ipswich Street, Stowmarket, Suffolk","location":{"lat":52.1852908,"lng":0.9991038}},
{"name":"Grover & Allen","address":"68-69 North Street, Sudbury, Suffolk","location":{"lat":52.0402216,"lng":0.7306583}},
{"name":"Claude du Vall","address":"77-81 High Street, Camberley, Surrey GBG 2013","location":{"lat":51.337235,"lng":-0.7436952}},
{"name":"Assembly Rooms","address":"147-153 High Street, Epsom, Surrey","location":{"lat":51.3327324,"lng":-0.2699745}},
{"name":"Jack Phillips","address":"48-56 High Street, Godalming, Surrey GBG 2013","location":{"lat":51.1861823,"lng":-0.6124494}},
{"name":"Rodboro Buildings","address":"1-10 Bridge Street, Guildford, Surrey","location":{"lat":51.2365438,"lng":-0.5780315}},
{"name":"Swan Inn","address":"15 High Street, Haslemere, Surrey","location":{"lat":51.0878818,"lng":-0.709495}},
{"name":"Jack Fairman","address":"30 Victoria Road, Horley, Surrey","location":{"lat":51.1704929,"lng":-0.1618484}},
{"name":"Edmund Tylney","address":"30-34 High Street, Leatherhead, Surrey","location":{"lat":51.2955745,"lng":-0.3263635}},
{"name":"Oxted Inn","address":"Units 1-4, Hoskins Walk, Station Road West, Oxted, Surrey","location":{"lat":51.2573236,"lng":-0.0059212}},
{"name":"Sun","address":"17-21 London Road, Redhill, Surrey","location":{"lat":51.2413847,"lng":-0.1683824}},
{"name":"George","address":"2-8 High Street, Staines, Surrey GBG 2013","location":{"lat":51.4336557,"lng":-0.5132388}},
{"name":"Regent","address":"19 Church Street, Walton on Thames, Surrey GBG 2013","location":{"lat":51.3869065,"lng":-0.4190411}},
{"name":"Herbert Wells","address":"51-57 Chertsey Road, Woking, Surrey GBG 2013","location":{"lat":51.3205251,"lng":-0.5555191}},
{"name":" Please note there is one landside bar at Gatwick Airport listed in the Airports section later in this document.","location":null},
{"name":"Hatters Inn","address":"2-10 Queensway, Bognor Regis, West Sussex","location":{"lat":50.7832524,"lng":-0.6755671}},
{"name":"Bright Helm","address":"20-22a West Street, Brighton, East Sussex","location":{"lat":50.9211832,"lng":-0.115994}},
{"name":"Post & Telegraph","address":"155-158 North Street, Brighton, East Sussex","location":{"lat":50.8233881,"lng":-0.1414992}},
{"name":"West Quay","address":"Marina Way, Brighton Marina Village, Kemp Town, Brighton, East Sussex","location":{"lat":50.8150868,"lng":-0.1050536}},
{"name":"Dolphin & Anchor","address":"West Street, Chichester, West Sussex","location":{"lat":50.730603,"lng":-0.7980836}},
{"name":"Gatehouse","address":"Chichester Gate, Terminus Road, Chichester, West Sussex","location":{"lat":50.8300181,"lng":-0.7850819}},
{"name":"Jubilee Oak","address":"6 Grand Parade, High Street, Crawley, West Sussex","location":{"lat":51.11538,"lng":-0.1903688}},
{"name":"Ounce & Ivy Bush","address":"Atrium Cinema Complex, Little King Street, East Grinstead, East Sussex","location":{"lat":51.1263425,"lng":-0.0089964}},
{"name":"Earl of Burlington","address":"21-23 Cornfield Road, Eastbourne, East Sussex","location":{"lat":50.7676098,"lng":0.2845188}},
{"name":"London and County","address":"46 Terminus Road, Eastbourne, East Sussex","location":{"lat":50.7688669,"lng":0.2822971}},
{"name":"George Hotel","address":"1 George Street, Hailsham, East Sussex","location":{"lat":50.8622351,"lng":0.2597876}},
{"name":"John Logie Baird","address":"29-31 Havelock Road, Hastings, East Sussex","location":{"lat":50.8558503,"lng":0.5795601}},
{"name":"Lynd Cross","address":"St Johns House, 1 Springfield Road, Horsham, West Sussex","location":{"lat":51.0638984,"lng":-0.3319925}},
{"name":"Cliftonville Inn","address":"98-101 George Street, Hove, East Sussex GBG 2013","location":{"lat":50.8294093,"lng":-0.1738395}},
{"name":"George Inn","address":"14-18 Surrey Street, Littlehampton, West Sussex","location":{"lat":50.8092437,"lng":-0.5438216}},
{"name":"Sir Timothy Shelley","address":"47-49 Chapel Road, Worthing, West Sussex","location":{"lat":50.8129762,"lng":-0.3708171}},
{"name":"Three Fishes","address":"56 Chapel Road, Worthing, West Sussex","location":{"lat":50.813357,"lng":-0.3706576}},
{"name":"Sir William de Wessyngton","address":"2-3 Victoria Road, Concord, Washington, Tyne & Wear GBG 2013","location":null},
{"name":"Tilley Stone","address":"9-10 Jackson Street, Gateshead, Tyne & Wear","location":{"lat":54.9619205,"lng":-1.6011257}},
{"name":"Wetherspoons","address":"Unit 177, Upper Floor, Blue Mall, 85 Russell Way, Metro Centre, Whickham, Gateshead, Tyne & Wear","location":null},
{"name":"Job Bulman","address":"St Nicholas Avenue, Gosforth, Tyne & Wear GBG 2013","location":null},
{"name":"Wild Boar","address":"Frederick Place, Houghton-le-Spring, Tyne & Wear","location":{"lat":54.8727141,"lng":-1.5001749}},
{"name":"Five Swans","address":"14 St Mary's Place, Newcastle upon Tyne, Tyne & Wear GBG 2013","location":{"lat":54.9777919,"lng":-1.6119034}},
{"name":"Keel Row","address":"Unit G3, Ground Floor, The Gate Cinema Complex, Newgate Street, Newcastle upon Tyne, Tyne & Wear","location":{"lat":54.9725439,"lng":-1.6174729}},
{"name":"Mile Castle","address":"19-25 Grainger Street, Newcastle upon Tyne, Tyne & Wear GBG 2013","location":{"lat":54.9703035,"lng":-1.6161162}},
{"name":"Quayside","address":"35-37 The Close, Newcastle upon Tyne, Tyne & Wear","location":{"lat":54.96766,"lng":-1.6107336}},
{"name":"Union Rooms","address":"48 Westgate Road, Newcastle upon Tyne, Tyne & Wear","location":{"lat":54.969834,"lng":-1.6149579}},
{"name":"Wouldhave","address":"16 Mile End Road, South Shields, Tyne & Wear GBG 2013","location":{"lat":55.0002606,"lng":-1.4337027}},
{"name":"Cooper Rose","address":"2-4 Albion Place, Sunderland, Tyne & Wear","location":{"lat":54.9032457,"lng":-1.3879037}},
{"name":"Lambton Worm","address":"Victoria Building, Low Row, Sunderland, Tyne & Wear","location":{"lat":54.9055735,"lng":-1.3897555}},
{"name":"William Jameson","address":"30-32 Fawcett Street, Sunderland, Tyne & Wear GBG 2013","location":{"lat":54.9058721,"lng":-1.3812667}},
{"name":"Fire Station","address":"18 York Road, Whitley Bay, Tyne & Wear","location":{"lat":55.042868,"lng":-1.4452905}},
{"name":"Yr Ieuan Ap Iago","address":"6 High Street, Aberdare, Wales","location":{"lat":51.7127632,"lng":-3.4462033}},
{"name":"Coliseum","address":"Lion Street, Abergavenny, Wales","location":{"lat":51.8232269,"lng":-3.017306}},
{"name":"Pontlottyn","address":"Somerset Street, Abertillery, Wales","location":{"lat":51.7280481,"lng":-3.1329264}},
{"name":"Yr Hen Orsaf","address":"Alexandra Road, Aberystwyth, Wales","location":{"lat":52.4145521,"lng":-4.0813089}},
{"name":"Black Bull Inn","address":"107 High Street, Bangor, Wales","location":{"lat":53.2243557,"lng":-4.1289807}},
{"name":"Sir Samuel Romilly","address":"4-6 Romilly Buildings, Broad Street, Barry, Wales GBG 2013","location":null},
{"name":"Sirhowy","address":"61-63 High Street, Blackwood, Wales","location":{"lat":51.6691496,"lng":-3.1952724}},
{"name":"Wyndham Arms (WL)","address":"Dunraven Place, Bridgend, Wales GBG 2013","location":{"lat":51.6117005,"lng":-3.5435211}},
{"name":"Tafarn Y Porth","address":"5-9 Eastgate Street, Caernarfon, Wales GBG 2013","location":{"lat":53.1407061,"lng":-4.2748011}},
{"name":"Malcom Uphill","address":"87-91 Cardiff Road, Caerphilly, Wales","location":{"lat":51.5722149,"lng":-3.2197377}},
{"name":"Aneurin Bevan","address":"Caerphilly Road, Heath, Cardiff, Wales","location":{"lat":51.5164356,"lng":-3.2006393}},
{"name":"Central Bar","address":"39 Windsor Place, Cardiff, Wales (1st March 2003)","location":{"lat":51.4833543,"lng":-3.1728085}},
{"name":"Crockerton","address":"Greyfriars Road, Cardiff, Wales","location":{"lat":51.4833328,"lng":-3.1771773}},
{"name":"Ernest Willows","address":"2-12 City Road, Roath, Cardiff, Wales","location":{"lat":51.4863018,"lng":-3.1657837}},
{"name":"Gatekeeper","address":"9-10 Westgate Street, Cardiff, Wales","location":{"lat":51.4800485,"lng":-3.1813504}},
{"name":"Great Western","address":"64 St Marys Street, Cardiff, Wales","location":{"lat":51.4765689,"lng":-3.1767341}},
{"name":"Ivor Davies","address":"243-249 Cowbridge Road East, Canton, Cardiff, Wales","location":{"lat":51.4819874,"lng":-3.205663}},
{"name":"Prince of Wales","address":"81-83 St Marys Street, Cardiff, Wales","location":{"lat":51.4770769,"lng":-3.1773993}},
{"name":"Yr Hen Dderwen","address":"47-48 King Street, Carmarthen, Wales GBG 2013","location":{"lat":51.8570923,"lng":-4.3050095}},
{"name":"Bell Hanger","address":"9-10 St. Mary Street, Chepstow, Gwent","location":{"lat":51.6423332,"lng":-2.6738735}},
{"name":"Picture House","address":"24-26 Princes Drive, Colwyn Bay, Wales","location":{"lat":53.2966223,"lng":-3.7276029}},
{"name":"John Fielding","address":"1 Caradoc Road, Cwmbran, Wales","location":{"lat":51.6554069,"lng":-3.0227865}},
{"name":"Picture House","address":"Market Street, Ebbw Vale, Wales","location":{"lat":51.7803493,"lng":-3.2073219}},
{"name":"William Owen","address":"6 Quay Street, Haverfordwest, Wales GBG 2013","location":{"lat":51.8015847,"lng":-4.9681341}},
{"name":"Market Cross","address":"9-11 High Street, Holywell, Wales","location":{"lat":53.2072397,"lng":-3.1326856}},
{"name":"Palladium","address":"7 Gloddaeth Street, Llandudno, Wales","location":{"lat":53.3251585,"lng":-3.8323362}},
{"name":"York Palace","address":"51 Stepney Street, Llanelli, Wales GBG 2013","location":{"lat":51.6811181,"lng":-4.1630941}},
{"name":"Y Dic Penderyn","address":"102-103 High Street, Merthyr Tydfil, Wales","location":{"lat":51.7469099,"lng":-3.378276}},
{"name":"Gold Cape","address":"8-8a Wrexham Street, Mold, Wales GBG 2013","location":{"lat":53.1658092,"lng":-3.141127}},
{"name":"Kings Head (WL)","address":"8 Agincourt Square, Monmouth, Wales GBG 2013","location":{"lat":51.8117759,"lng":-2.7154988}},
{"name":"Red Lion Hotel","address":"49 Sway Road, Morriston, Swansea, Wales","location":{"lat":51.6686034,"lng":-3.9226771}},
{"name":"David Protheroe","address":"7 Windsor Road, Neath, Wales","location":{"lat":51.6619138,"lng":-3.8063633}},
{"name":"Godfrey Morgan","address":"158 Chepstow Road, Maindee, Newport, Wales","location":{"lat":51.5897775,"lng":-2.9784371}},
{"name":"John Wallace Linton","address":"Units 10-12, The Cambrian Centre, Cambrian Road, Newport, Wales","location":{"lat":51.5886463,"lng":-2.9977681}},
{"name":"Queens Hotel (WL)","address":"19 Bridge Street, Newport, Wales","location":{"lat":51.6486337,"lng":-3.1370327}},
{"name":"Tom Toya Lewis","address":"108-112 Commercial Street, Newport, Wales","location":{"lat":51.5835699,"lng":-2.9933999}},
{"name":"Bears Head","address":"37-39 Windsor Road, Penarth, Wales GBG 2013","location":{"lat":51.4394566,"lng":-3.1754099}},
{"name":"John Capel Hanbury","address":"130-131 Osborne Road, Pontypool, Wales","location":{"lat":51.7040162,"lng":-3.0422996}},
{"name":"Tumble Inn","address":"4-9 Broadway, Pontypridd, Wales","location":{"lat":51.5998434,"lng":-3.3416974}},
{"name":"Lord Caradoc","address":"69-73 Station Road, Port Talbot, Wales GBG 2013","location":{"lat":51.5943851,"lng":-3.7820491}},
{"name":"Sussex","address":"20-26 Sussex Street, Rhyl, Wales GBG 2013","location":{"lat":53.3205879,"lng":-3.492471}},
{"name":"Castle Hotel (WL)","address":"St Peter's Square, Ruthin, Wales","location":{"lat":53.1146865,"lng":-3.3107501}},
{"name":"Central Hotel","address":"2-4 Chester Road West, Shotton, Wales","location":{"lat":53.2123756,"lng":-3.0397708}},
{"name":"Bank Statement","address":"57-58 Wind Street, Swansea, Wales GBG 2013","location":{"lat":51.6194821,"lng":-3.9405776}},
{"name":"Potters Wheel","address":"85-86 Kingsway, Swansea, Wales GBG 2013","location":{"lat":51.6208662,"lng":-3.9452535}},
{"name":"Olympia","address":"Morgan Street, Tredegar, Wales","location":{"lat":51.7704375,"lng":-3.2439976}},
{"name":"Elihu Yale","address":"44-46 Regent Street, Wrexham, Wales GBG 2013","location":{"lat":53.0472274,"lng":-2.9971373}},
{"name":"North & South Wales Bank","address":"14 High Street, Wrexham, Wales","location":{"lat":53.0527763,"lng":-3.0693008}},
{"name":"Bear & Ragged Staff","address":"50 King Street, Bedworth, Warwickshire","location":{"lat":52.4795685,"lng":-1.4710999}},
{"name":"Felix Holt","address":"3 Stratford Street, Nuneaton, Warwickshire GBG 2013","location":{"lat":52.5231472,"lng":-1.4691171}},
{"name":"William White","address":"42 Newdegate Street, Nuneaton, Warwickshire","location":{"lat":52.5235437,"lng":-1.4659678}},
{"name":"Benjamin Satchwell","address":"112-114 The Parade, Royal Leamington Spa, Warwickshire GBG 2013","location":{"lat":52.2896429,"lng":-1.5363614}},
{"name":"Jug & Jester","address":"11-13 Bath Street, Royal Leamington Spa, Warwickshire GBG 2013","location":{"lat":52.2855496,"lng":-1.5329851}},
{"name":"Lawrence Sheriff","address":"28-29 High Street, Rugby, Warwickshire GBG 2013","location":{"lat":52.358228,"lng":-1.2204285}},
{"name":"Rupert Brooke","address":"8-10 Castle Street, Rugby, Warwickshire","location":{"lat":52.3731876,"lng":-1.2592654}},
{"name":"Golden Bee","address":"41-42 Sheep Street, Stratford upon Avon, Warwickshire","location":{"lat":52.1916361,"lng":-1.7058365}},
{"name":"Thomas Lloyd","address":"3-7 Market Place, Warwick, Warwickshire","location":{"lat":52.2812481,"lng":-1.5912005}},
{"name":" Please note there is one landside bar at Birmingham Airport listed in the Airports section later in this document.","location":null},
{"name":"Spread Eagle","address":"1146a Warwick Road, Acocks Green, West Midlands","location":{"lat":52.4466361,"lng":-1.8194073}},
{"name":"Atrium","address":"The Atrium, National Exhibition Centre, Bickenhill, West Midlands","location":{"lat":52.4521663,"lng":-1.7234938}},
{"name":"Wetherspoons","address":"The Piazza, National Exhibition Centre, Bickenhill, West Midlands","location":{"lat":52.4521663,"lng":-1.7234938}},
{"name":"Sir Henry Newbolt","address":"45-47 High Street, Bilston, West Midlands","location":{"lat":52.5640564,"lng":-2.0803158}},
{"name":"Britannia","address":"124 Halesowen Street, Blackheath, West Midlands GBG 2013","location":{"lat":52.4753951,"lng":-2.0408348}},
{"name":"Briar Rose (WL)","address":"25 Bennetts Hill, Birmingham, West Midlands","location":{"lat":52.4798846,"lng":-1.9002548}},
{"name":"Dragon Inn","address":"90 Hurst Street, Birmingham, West Midlands","location":{"lat":52.4732453,"lng":-1.8957854}},
{"name":"Figure of Eight","address":"236-239 Broad Street, Birmingham, West Midlands","location":{"lat":52.4765111,"lng":-1.9124884}},
{"name":"Soloman Cutler","address":"Regency Wharf, Broad Street, Birmingham, West Midlands","location":{"lat":52.4766695,"lng":-1.912319}},
{"name":"Square Peg","address":"115 Corporation Street, Birmingham, West Midlands","location":{"lat":52.48193,"lng":-1.8948989}},
{"name":"Wetherspoons","address":"Unit 31, Paradise Place, Birmingham, West Midlands","location":{"lat":52.4235841,"lng":-1.854242}},
{"name":"Bishop Vesey","address":"63 Boldmere Road, Boldmere, West Midlands GBG 2013","location":{"lat":52.5485353,"lng":-1.8410564}},
{"name":"Abraham Darby","address":"Unit 25, Ground Floor, Westfield Shopping Centre, Times Square Avenue, Brierley Hill, West Midlands","location":{"lat":52.4792022,"lng":-2.111225}},
{"name":"Waterfront Inn","address":"6-7 The Waterfront, Level Street, Brierley Hill, West Midlands","location":{"lat":52.4845942,"lng":-2.1142892}},
{"name":"Earl of Mercia","address":"18 High Street, Coventry, West Midlands","location":{"lat":52.4383874,"lng":-1.5320671}},
{"name":"Flying Standard","address":"2-10 Trinity Street, Coventry, West Midlands","location":{"lat":52.4092185,"lng":-1.5093425}},
{"name":"Spon Gate","address":"Unit 2M, The Sky Dome, Croft Road, Coventry, West Midlands","location":{"lat":52.4070014,"lng":-1.5175302}},
{"name":"Moon under Water","address":"164-166 High Street, Cradley Heath, West Midlands","location":{"lat":52.472115,"lng":-2.0825147}},
{"name":"Full Moon","address":"58-60 High Street, Dudley, West Midlands","location":{"lat":52.5094178,"lng":-2.0844923}},
{"name":"City Arms","address":"1 Earlsdon Street, Earlsdon, West Midlands GBG 2013","location":{"lat":52.3996208,"lng":-1.5307313}},
{"name":"Charlie Hall","address":"49 Barnabas Road, Erdington, West Midlands","location":{"lat":52.5242431,"lng":-1.8399058}},
{"name":"William Shenstone","address":"1-5 Queensway, Halesowen, West Midlands","location":{"lat":52.4497887,"lng":-2.0507808}},
{"name":"Pear Tree","address":"25-27 Alcester Road South, Kings Heath, West Midlands GBG 2013","location":{"lat":52.4317645,"lng":-1.8929987}},
{"name":"Mare Pool","address":"294 Lichfield Road, Mere Green, Sutton Coldfield, West Midlands GBG 2013","location":{"lat":52.5857852,"lng":-1.829189}},
{"name":"Elizabeth of York","address":"12a St Marys Row, Moseley, West Midlands GBG 2013","location":{"lat":52.4462642,"lng":-1.8877181}},
{"name":"Black Horse","address":"Bristol Road South, Northfield, West Midlands","location":{"lat":52.407165,"lng":-1.9770287}},
{"name":"Court of Requests","address":"19 Church Street, Oldbury, West Midlands","location":{"lat":52.5054219,"lng":-2.0158553}},
{"name":"Arthur Robertson","address":"Units 51-53 One Stop Shopping Centre, 2 Walsall Road, Perry Barr, West Midlands","location":{"lat":52.5181632,"lng":-1.9013794}},
{"name":"Clifton","address":"Bull Ring, Sedgley, West Midlands","location":{"lat":52.5411247,"lng":-2.1221154}},
{"name":"Assembly Rooms","address":"21 Poplar Road, Solihill, West Midlands GBG 2013","location":null},
{"name":"White Swan","address":"32-34 Station Road, Solihull, West Midlands","location":{"lat":52.4142722,"lng":-1.7811892}},
{"name":"Chequers Inn","address":"96 High Street, Stourbridge, West Midlands","location":{"lat":52.4809334,"lng":-2.1616907}},
{"name":"Edward Rutland","address":"77-78 High Street, Stourbridge, West Midlands","location":{"lat":52.4556072,"lng":-2.1444308}},
{"name":"Bottle of Sack","address":"2 Birmingham Road, Sutton Coldfield, West Midlands","location":{"lat":52.5589832,"lng":-1.8268738}},
{"name":"Imperial","address":"Darwall Street, Walsall, West Midlands","location":{"lat":52.5864638,"lng":-1.9808723}},
{"name":"St Matthews Hall","address":"Lichfield Street, Walsall, West Midlands","location":{"lat":52.5887466,"lng":-1.9755059}},
{"name":"Hornet","address":"991 Alum Rock Road, Ward End, West Midlands","location":{"lat":52.4927372,"lng":-1.8193883}},
{"name":"Bellwether","address":"3-4 Walsall Street, Wednesbury, West Midlands GBG 2013","location":{"lat":52.5533111,"lng":-2.0189197}},
{"name":"Royal Tiger","address":"41-43 High Street, Wednesfield, West Midlands","location":{"lat":52.6002931,"lng":-2.0818917}},
{"name":"Billiard Hall","address":"St Michaels Street, West Bromwich Ringway, West Bromwich, West Midlands","location":{"lat":52.518283,"lng":-1.9955639}},
{"name":"Malthouse","address":"The Dale, New Road, Willenhall, West Midlands GBG 2013","location":null},
{"name":"Moon under Water","address":"53-55 Lichfield Street, Wolverhampton, West Midlands GBG 2013","location":{"lat":52.5868938,"lng":-2.1247664}},
{"name":"William Tyler","address":"140 Church Road, Yardley, West Midlands","location":{"lat":52.4654727,"lng":-1.8113685}},
{"name":"Bell Inn","address":"13-15 Salisbury Street, Amesbury, Wiltshire","location":{"lat":51.1719357,"lng":-1.7807783}},
{"name":"Bridge House","address":"Borough Parade, Chippenham, Wiltshire","location":{"lat":51.4583936,"lng":-2.116938}},
{"name":"Silk Mercer","address":"38 St John's Street, Devizes, Wiltshire GBG 2013","location":{"lat":51.3518124,"lng":-1.9952913}},
{"name":"Bear","address":"3 Bath Road, Melksham, Wiltshire","location":{"lat":51.3752511,"lng":-2.1390518}},
{"name":"Kings Head Inn (WL)","address":"1 Bridge Street, Salisbury, Wiltshire GBG 2013","location":{"lat":51.0685957,"lng":-1.7973158}},
{"name":"Dockle Farmhouse","address":"2 Bridge End Road, Lower Stratton, Swindon, Wiltshire GBG 2013","location":null},
{"name":"Groves Company Inn","address":"22-23 Fleet Street, Swindon, Wiltshire","location":{"lat":51.5628171,"lng":-1.7862118}},
{"name":"Savoy","address":"38-40 Regent Street, Swindon, Wiltshire","location":{"lat":51.559644,"lng":-1.782446}},
{"name":"Sir Daniel Arms","address":"Fleet Street, Swindon, Wiltshire","location":{"lat":51.5628171,"lng":-1.7862118}},
{"name":"Albany Palace","address":"1 Park Road, Trowbridge, Wiltshire","location":{"lat":51.3199696,"lng":-2.2063846}},
{"name":"Sir Isaac Pitman","address":"1-2 Castle Place, Market Street, Trowbridge, Wiltshire","location":{"lat":51.3201385,"lng":-2.2075541}},
{"name":"George Hotel (WL)","address":"Load Street, Bewdley, Worcestershire","location":{"lat":52.375846,"lng":-2.315019}},
{"name":"Golden Cross Hotel","address":"20 High Street, Bromsgrove, Worcestershire GBG 2013","location":{"lat":52.3339584,"lng":-2.0618117}},
{"name":"Old Swanne Inne","address":"66 High Street, Evesham, Worcestershire GBG 2013","location":{"lat":52.0944078,"lng":-1.9464644}},
{"name":"Foley Arms Hotel (WL)","address":"14 Worcester Road, Great Malvern, Worcestershire","location":{"lat":52.1123542,"lng":-2.3299972}},
{"name":"Penny Black","address":"14-18 Bull Ring, Kidderminster, Worcestershire","location":{"lat":52.388277,"lng":-2.2495401}},
{"name":"Royal Enfield","address":"The Old Cinema, Unicorn Hill, Redditch, Worcestershire GBG 2013","location":null},
{"name":"Rising Sun","address":"Unit 4, Alcester Street, Redditch, Worcestershire","location":{"lat":52.3062852,"lng":-1.9392657}},
{"name":"Olde Crown Inn","address":"9 Bridge Street, Stourport-on-Severn, Worcestershire","location":{"lat":52.3381402,"lng":-2.2820628}},
{"name":"Crown","address":"Crown Passage, Broad Street, Worcester, Worcestershire","location":{"lat":52.1930553,"lng":-2.2224929}},
{"name":"Postal Order","address":"18 Foregate Street, Worcester, Worcestershire GBG 2013","location":{"lat":52.1954784,"lng":-2.2220868}},
{"name":"Prior John","address":"34-36 Promenade, Bridlington, East Yorkshire GBG 2013","location":{"lat":54.0836442,"lng":-0.1880606}},
{"name":"City & County","address":"Market Square, Goole, East Yorkshire","location":{"lat":53.703717,"lng":-0.8703673}},
{"name":"Benjamin Fawcett","address":"Unit 1, The Viking Centre, 37 Middle Street North, Great Driffield, East Yorkshire","location":{"lat":54.0084092,"lng":-0.4419426}},
{"name":"Admiral of the Humber","address":"1 Anlaby Road, Kingston-upon-Hull, East Yorkshire GBG 2013","location":{"lat":53.7450563,"lng":-0.41346}},
{"name":"Three John Scotts","address":"City Exchange, Alfred Gelder Street, Kingston-upon-Hull, East Yorkshire GBG 2013","location":null},
{"name":"William Wilberforce","address":"Trinity House Lane, Kingston-upon-Hull, East Yorkshire","location":{"lat":53.7424637,"lng":-0.3349951}},
{"name":"Zacariah Pearson","address":"386 Beverley Road, Newland, Kingston-upon-Hull, East Yorkshire","location":{"lat":53.7638514,"lng":-0.3514043}},
{"name":"Winter Gardens","address":"Unit 4, Royal Baths, Parliament Street, Harrogate, North Yorkshire","location":{"lat":53.9937494,"lng":-1.5430656}},
{"name":"Ralph Fitz Randal","address":"6 Queens Road, Richmond, North Yorkshire GBG 2013","location":{"lat":54.4046499,"lng":-1.7368072}},
{"name":"Unicorn Hotel (WL)","address":"1 Market Place, Ripon, North Yorshire","location":{"lat":54.2220644,"lng":-1.6563609}},
{"name":"Lord Rosebery","address":"85-87 Westborough, Scarborough, North Yorkshire","location":{"lat":54.2810949,"lng":-0.4044391}},
{"name":"Devonshire Inn","address":"22 Newmarket Street, Skipton, North Yorkshire","location":{"lat":53.9606661,"lng":-2.0140326}},
{"name":"Three Tuns (WL)","address":"54 Market Place, Thirsk, North Yorkshire","location":{"lat":54.2327505,"lng":-1.3435372}},
{"name":"Postern Gate","address":"90 Piccadilly, York, North Yorkshire","location":{"lat":53.954766,"lng":-1.077036}},
{"name":"Punchbowl","address":"5-9 Blossom Street, York, North Yorkshire","location":{"lat":53.955629,"lng":-1.0910313}},
{"name":" Please note there is one landside bar at Doncaster Airport listed in the Airports section later in this document.","location":null},
{"name":"Joseph Bramah","address":"15 Market Hill, Barnsley, South Yorkshire GBG 2013","location":{"lat":53.5529059,"lng":-1.481678}},
{"name":"Silkstone Inn","address":"62-64 Market Street, Barnsley, South Yorkshire GBG 2013","location":{"lat":53.5030083,"lng":-1.4408047}},
{"name":"Gate House","address":"Priory Walk, Doncaster, South Yorkshire","location":{"lat":53.5227836,"lng":-1.1348453}},
{"name":"Old Angel","address":"Cleveland Street, Doncaster, South Yorkshire","location":{"lat":53.5179324,"lng":-1.1383649}},
{"name":"Red Lion","address":"37-38 Market Place, Doncaster, South Yorkshire GBG 2013","location":{"lat":53.5238291,"lng":-1.13242}},
{"name":" Maltby:","address":"Queens Hotel, Tickhill Road, Maltby, South Yorkshire","location":{"lat":53.4235971,"lng":-1.1955734}},
{"name":"Old Market Hall","address":"Market Street, Mexborough, South Yorkshire","location":{"lat":53.4921388,"lng":-1.2842892}},
{"name":"Blue Coat","address":"The Crofts, Rotherham, South Yorkshire GBG 2013","location":{"lat":53.4286605,"lng":-1.3552753}},
{"name":"Corn Law Rhymer","address":"35-37 High Street, Rotherham, South Yorkshire","location":{"lat":53.5322597,"lng":-1.3041846}},
{"name":"Rhinoceros","address":"35-37 Bridgegate, Rotherham, South Yorkshire","location":{"lat":53.432153,"lng":-1.3572018}},
{"name":"Bankers Draft","address":"1-3 Market Place, Sheffield, South Yorkshire","location":{"lat":53.3832887,"lng":-1.4663016}},
{"name":"Benjamin Huntsman","address":"12-18 Cambridge Street, Sheffield, South Yorkshire","location":{"lat":53.3798961,"lng":-1.4723692}},
{"name":"Francis Newton","address":"7 Clarkehouse Road, Broomfield, Sheffield, South Yorkshire","location":null},
{"name":"Rawson Spring","address":"Langsett Road, Hillsborough, Sheffield, South Yorkshire","location":{"lat":53.3990709,"lng":-1.4937742}},
{"name":"Sheaf Island","address":"Wards Brewery, Ecclesall Road, Sheffield, South Yorkshire","location":{"lat":53.3694342,"lng":-1.4943952}},
{"name":"Sheffield Waterworks Company","address":"Cambridge House, 2-12 Division Street, Sheffield, South Yorkshire","location":{"lat":53.3803324,"lng":-1.473078}},
{"name":"Swim Inn","address":"217-231 Glossop Road, Sheffield, South Yorkshire","location":{"lat":53.3800801,"lng":-1.4809602}},
{"name":"Woodseats Palace","address":"692 Chesterfield Road, Woodseats, Sheffield, South Yorkshire","location":{"lat":53.3441648,"lng":-1.4783276}},
{"name":"Church House","address":"Montgomery Square, Wath-upon-Dearne, South Yorkshire GBG 2013","location":{"lat":53.502566,"lng":-1.3448285}},
{"name":"Horseshoe","address":"30 High Street, Wombwell, South Yorkshire","location":{"lat":53.5222966,"lng":-1.3979945}},
{"name":"Union Rooms","address":"4 Hick Lane, Batley, West Yorkshire","location":{"lat":53.7126231,"lng":-1.6286378}},
{"name":"Myrtle Grove","address":"141 Main Street, Bingley, West Yorkshire GBG 2013","location":{"lat":53.8472718,"lng":-1.8373683}},
{"name":"Sir Titus Salt","address":"Unit B, Windsor Baths, Morley Street, Bradford, West Yorkshire GBG 2013","location":null},
{"name":"Turls Green","address":"Unit D, Centenary Square, Bradford, West Yorkshire","location":null},
{"name":"Richard Oastler","address":"Bethel Street, Brighouse, West Yorkshire GBG 2013","location":{"lat":53.7011694,"lng":-1.780471}},
{"name":"Glass Blower","address":"15 Bank Street, Castleford, West Yorkshire GBG 2013","location":{"lat":53.7269554,"lng":-1.3538477}},
{"name":"Winter Seam","address":"Xscape, Colorado Way, Glass Houghton, Castleford, West Yorkshire","location":{"lat":53.7101734,"lng":-1.3418965}},
{"name":"Three Hulats","address":"13 Harrogate Road, Chapel Allerton, West Yorkshire GBG 2013","location":{"lat":53.8257386,"lng":-1.5343444}},
{"name":"Obediah Brooke","address":"19 Bradford Road, Cleckheaton, West Yorkshire","location":{"lat":53.7246559,"lng":-1.7123569}},
{"name":"Time Piece","address":"11-15a Northgate, Dewsbury, West Yorkshire","location":{"lat":53.6926062,"lng":-1.6295783}},
{"name":"Barum Top Inn","address":"17 Rawson Street, Halifax, West Yorkshire","location":{"lat":53.7217018,"lng":-1.8627373}},
{"name":"Percy Shaw","address":"Broad Street Plaza, Bond Street, Halifax, West Yorkshire","location":{"lat":53.7212674,"lng":-1.8678607}},
{"name":"Cherry Tree","address":"Pearl Assurance House, 14-18 John William Street, Huddersfield, West Yorkshire","location":{"lat":53.6472111,"lng":-1.7823066}},
{"name":"Lord Wilson","address":"Unit 27, Kingsgate Centre, King Street, Huddersfield, West Yorkshire","location":{"lat":53.6548059,"lng":-1.8192534}},
{"name":"Listers Arms","address":"Unit 14, The Moors Shopping Centre, South Haksworth Street, Ilkley, West Yorkshire","location":{"lat":53.8328772,"lng":-1.7772132}},
{"name":"Livery Rooms","address":"89-97 North Street, Keighley, West Yorkshire","location":{"lat":53.8684497,"lng":-1.909675}},
{"name":"Becketts Bank","address":"28-30 Park Row, Leeds, West Yorkshire","location":{"lat":53.7981396,"lng":-1.5474823}},
{"name":"Cuthbert Brodrick","address":"99 Portland Crescent, Leeds, West Yorkshire","location":{"lat":53.801889,"lng":-1.5478519}},
{"name":"Hedley Verity","address":"43a Woodhouse Lane, Leeds, West Yorkshire","location":{"lat":53.8017334,"lng":-1.5454927}},
{"name":"Stick or Twist","address":"The Podium Site, Merrion Way, Leeds, West Yorkshire","location":{"lat":53.8025984,"lng":-1.5436658}},
{"name":"Wetherspoons","address":"Unit 6, Wellington Quarter, Leeds City Station, Leeds, West Yorkshire","location":{"lat":53.7941673,"lng":-1.5475857}},
{"name":"Bowling Green","address":"18 Bondgate, Otley, West Yorkshire","location":{"lat":53.9042548,"lng":-1.6929433}},
{"name":"Broken Bridge","address":"5 Horsefair, Pontefract, West Yorkshire GBG 2013","location":null},
{"name":"Crossed Shuttle","address":"11 Manor House Street, Pudsey, West Yorkshire","location":{"lat":53.7965651,"lng":-1.6620311}},
{"name":"Sir Norman Rae","address":"Victoria House, Market Square, Shipley, West Yorkshire GBG 2013","location":null},
{"name":"White Hart Hotel","address":"White Hart Fold, Station Approach, Todmorden, West Yorkshire","location":{"lat":53.7141743,"lng":-2.098492}},
{"name":"Six Chimneys","address":"41-43 Kirkgate, Wakefield, West Yorkshire","location":{"lat":53.6828886,"lng":-1.494354}},
{"name":"Granite City","address":"Aberdeen Airport (Landside), Dyce, Scotland GBG 2013","location":{"lat":57.149717,"lng":-2.094278}},
{"name":"Dragonfly","address":"Mezzanine Level, Terminal One (Landside), Birmingham International Airport, Bickenhill, West Midlands","location":{"lat":52.4521237,"lng":-1.7330816}},
{"name":"Amy Johnson","address":"Landside (Arrivals), Ground Floor, Robin Hood Airport, First Avenue, Finningley, Doncaster, South Yorkshire","location":null},
{"name":"Turnhouse","address":"First Floor, Edinburgh Airport (Landside), Ingliston, Edinburgh, Scotland","location":{"lat":55.953252,"lng":-3.188267}},
{"name":"Beehive","address":"Mezzanine Level, South Terminal (Landside), Gatwick Airport, West Sussex","location":{"lat":51.1554548,"lng":-0.1650585}},
{"name":"Sandpiper","address":"Ground Floor, Glasgow Airport (Landside), Paisley, Scotland","location":{"lat":55.847258,"lng":-4.440114}},
{"name":"Skylark","address":"Mezzanine Level, Terminal One (Landside), Heathrow Airport, Heathrow, TW6","location":null},
{"name":"Windsor Castle","address":"Mezzanine Level, Terminal Four (Landside), Heathrow Airport, Heathrow, TW6","location":null},
{"name":" These are listed in their own category as officially they are not in the UK","address":"being beyond passport control and customs, but still count in their own right as JD Wetherspoon pubs or bars.","location":null},
{"name":"Wetherspoons","address":"International Departure Lounge, Terminal One (Airside), Birmingham International Airport, Bickenhill, West Midlands","location":{"lat":52.4521237,"lng":-1.7330816}},
{"name":"Wetherspoons","address":"Terminal Two (Airside), Birmingham International Airport, Bickenhill, West Midlands","location":{"lat":52.4521237,"lng":-1.7330816}},
{"name":" Doncaster Wetherspoons","address":"First Floor Robin Hood Airport (Airside), First Avenue, Finningley, Doncaster, South Yorkshire","location":null},
{"name":"Sir Walter Scott","address":"Unit C170, Gates 11\/12, Edinburgh Airport (Airside), Ingliston, Edinburgh, Scotland","location":{"lat":55.953252,"lng":-3.188267}},
{"name":"Wetherspoons Express","address":"Gate 4, Edinburgh Airport (Airside), Ingliston, Edinburgh, Scotland","location":{"lat":55.953252,"lng":-3.188267}},
{"name":"Flying Horse","address":"Unit 8, Upper Level, South Terminal (Airside), Gatwick Airport, West Sussex","location":{"lat":51.1554548,"lng":-0.1650585}},
{"name":"Red Lion","address":"Unit 37, Lower Level, North Terminal (Airside), Gatwick Airport, West Sussex","location":{"lat":51.1554548,"lng":-0.1650585}},
{"name":"Wetherspoon Express","address":"Gate 105, Gates 101-113, Pier 6, North Terminal (Airside), Gatwick Airport, East Sussex","location":null},
{"name":"Sanderling","address":"Glasgow Airport (Airside), Paisley, Scotland","location":{"lat":55.847258,"lng":-4.440114}},
{"name":"Wetherspoons Express","address":"Rotunda (Gates 77-90, Ireland departures), Terminal One (Airside), Heathrow Airport, Heathrow, TW6","location":null},
{"name":"Crown Rivers","address":"Gates A6\/A7, Terminal A, Terminal Five (Airside), Heathrow Airport, Heathrow, TW6","location":null},
{"name":"Wetherspoons Express","address":"Terminal B, Terminal Five (Airside), Heathrow Airport, Heathrow, TW6","location":null},
{"name":"Argosy","address":"Aintree Food Village, Level 3 (Airside), Liverpool John Lennon Airport, Speke, Merseyside","location":null},
{"name":"Wetherspoons Express","address":"Gate 1, Estuary Food Village, Level 2 (Airside), Liverpool John Lennon Airport, Speke, Merseyside","location":null},
{"name":"Windmill","address":"Stansted Airport (Airside), Stansted, Essex","location":{"lat":51.889617,"lng":0.26248}}]